station_code,station_local_code,station_name,station_start_date,station_end_date,station_latitude_d,station_latitude_dms,station_longitude_d,station_longitude_dms,station_altitude,type_of_station,station_type_of_area,station_ozone_classification,station_subcat_rural_background,network_code
DEBB007,DEBB007,Elsterwerda,19920901,,51.462734,+051.27.45,13.526796,+013.31.36,89,background,suburban,suburban,unknown,DE014A
DEBB021,DEBB021,Potsdam-Zentrum,19910201,,52.401352,+052.24.4,13.059945,+013.3.35,31,background,urban,urban,unknown,DE014A
DEBB029,DEBB029,Schwedt (Oder),19930406,,53.064262,+053.3.51,14.285139,+014.17.6,5,industrial,suburban,suburban,unknown,DE014A
DEBB032,DEBB032,Eisenhüttenstadt,19930420,,52.146264,+052.8.46,14.638166,+014.38.17,40,industrial,suburban,suburban,unknown,DE014A
DEBB042,DEBB042,Frankfurt (Oder),19970421,,52.339953,+052.20.23,14.531918,+014.31.54,58,background,suburban,suburban,unknown,DE014A
DEBB044,DEBB044,"Cottbus, Bahnhofstr.",20120925,,51.756476,+051.45.23,14.327998,+014.19.40,70,traffic,urban,urban,unknown,DE014A
DEBB045,DEBB045,"Frankfurt (Oder), Leipziger Str.",19950801,,52.337336,+052.20.14,14.538595,+014.32.18,56,traffic,urban,urban,unknown,DE014A
DEBB048,DEBB048,Neuruppin,19980611,,52.93189,+052.55.54,12.809481,+012.48.34,43,background,suburban,suburban,unknown,DE014A
DEBB049,DEBB049,"Brandenburg, Neuendorfer Str.",20131015,,52.409309,+052.24.33,12.548376,+012.32.54,33,traffic,urban,urban,unknown,DE014A
DEBB053,DEBB053,Hasenholz,20001121,,52.563835,+052.33.49,14.015252,+014.0.54,88,background,rural,rural,regional,DE014A
DEBB054,DEBB054,Potsdam Zeppelinstr.,20010307,,52.393932,+052.23.38,13.037474,+013.2.14,31,traffic,urban,urban,unknown,DE014A
DEBB055,DEBB055,Brandenburg a.d. Havel,20011001,,52.420442,+052.25.13,12.552303,+012.33.8,33,background,suburban,suburban,unknown,DE014A
DEBB056,DEBB056,Paulinenaue,19990701,,52.689952,+052.41.23,12.734188,+012.44.3,29,background,rural,rural,regional,DE014A
DEBB060,DEBB060,Eberswalde Breite Straße,20010615,,52.832467,+052.49.56,13.822211,+013.49.19,20,traffic,urban,urban,unknown,DE014A
DEBB063,DEBB063,Wittenberge,20021203,,52.99875,+052.59.55,11.73846,+011.44.18,22,background,suburban,suburban,unknown,DE014A
DEBB064,DEBB064,Cottbus,20021210,,51.746344,+051.44.46,14.33455,+014.20.4,75,background,urban,urban,unknown,DE014A
DEBB065,DEBB065,Lütte (Belzig),20030214,,52.194225,+052.11.39,12.561389,+012.33.41,111,background,rural,rural,regional,DE014A
DEBB066,DEBB066,Spreewald,20030417,,51.897598,+051.53.51,14.057064,+014.3.25,52,background,rural,rural,regional,DE014A
DEBB067,DEBB067,Nauen,20030811,,52.608609,+052.36.30,12.885194,+012.53.6,31,background,suburban,suburban,unknown,DE014A
DEBB068,DEBB068,"Bernau, Lohmühlenstr.",20030109,,52.677651,+052.40.39,13.582269,+013.34.56,71,traffic,urban,urban,unknown,DE014A
DEBB073,DEBB073,"Potsdam, Großbeerenstr.",20060608,,52.388869,+052.23.19,13.094618,+013.5.40,32,traffic,urban,urban,unknown,DE014A
DEBB075,DEBB075,"Potsdam, Groß Glienicke",20070427,,52.484168,+052.29.3,13.123698,+013.7.25,39,background,suburban,suburban,unknown,DE014A
DEBB076,DEBB076,"Cottbus, Depo-Meisenweg",19910101,,51.776119,+051.46.34,14.31653,+014.18.59,68,background,suburban,suburban,unknown,DE014A
DEBB077,DEBB077,Neuglobsow,19990101,,53.142367,+053.8.32,13.03233,+013.1.56,65,background,rural,rural,regional,DE014A
DEBB078,DEBB078,"Neuruppin, Depo-Am See",19960101,,52.903756,+052.54.13,12.807049,+012.48.25,62,background,suburban,suburban,unknown,DE014A
DEBB083,DEBB083,Spremberg,20090506,,51.5645,+051.33.52,14.3764,+014.22.35,99,background,suburban,suburban,unknown,DE014A
DEBB086,DEBB086,Blankenfelde-Mahlow,20100525,,52.349703,+052.20.58,13.424304,+013.25.27,43,background,suburban,suburban,unknown,DE014A
DEBB087,DEBB087,"Cottbus, W.-Külz-Str.",20101201,,51.75413,+051.45.14,14.325549,+014.19.31,75,traffic,urban,urban,unknown,DE014A
DEBB088,DEBB088,"Premnitz, OT Döberitz",20130306,,52.52401,+052.31.26,12.370162,+012.22.12,30,industrial,suburban,suburban,unknown,DE014A
DEBB089,DEBB089,WMN_Kleinmachnow,19890101,,52.398502,+052.23.54,13.186497,+013.11.11,50,background,rural,rural,unknown,DE014A
DEBB090,DEBB090,WMN_Cumlosen,19890101,,53.04187,+053.2.30,11.636464,+011.38.11,50,background,rural,rural,unknown,DE014A
DEBB091,DEBB091,WMN_Hohenwutzen,19890101,,52.836134,+052.50.10,14.122803,+014.7.22,50,background,rural,rural,unknown,DE014A
DEBB092,DEBB092,Frankfurt (Oder),20131001,,52.33468,+052.20.4,14.52596,+014.31.33,74,background,suburban,suburban,unknown,DE014A
DEBB093,DEBB093,zDep_Natteheide,20050101,,53.098,+053.5.52,12.43,+012.25.47,,background,rural,rural background,remote,DE014A
DEBB094,DEBB094,zDep_Beerenbusch,20050101,,53.141,+053.8.27,12.936,+012.56.9,,background,rural,rural background,remote,DE014A
DEBB095,DEBB095,zDep_Kienhorst,20050101,,52.974,+052.58.26,13.646,+013.38.45,,background,rural,rural background,remote,DE014A
DEBB096,DEBB096,zDep_Weizgrund,20050101,,52.194,+052.11.38,12.562,+012.33.43,,background,rural,rural background,remote,DE014A
DEBB097,DEBB097,zDep_Neusorgefeld,20050101,,51.803,+051.48.10,13.566,+013.33.57,,background,rural,rural background,remote,DE014A
DEBE010,DEBE010,B Wedding-Amrumer Str.,19841101,,52.543007,+052.32.34,13.349116,+013.20.56,35,background,urban,urban,unknown,DE008A
DEBE018,DEBE018,B Schöneberg-Belziger Straße,19861101,,52.485814,+052.29.8,13.348775,+013.20.55,40,background,urban,urban,unknown,DE008A
DEBE027,DEBE027,B Marienfelde-Schichauweg,19890401,,52.398406,+052.23.54,13.368103,+013.22.5,45,background,rural,rural,near-city,DE008A
DEBE032,DEBE032,B Grunewald (3.5 m),19861001,,52.473192,+052.28.23,13.225144,+013.13.30,50,background,rural,rural,near-city,DE008A
DEBE034,DEBE034,B Neukölln-Nansenstraße,19860301,,52.489451,+052.29.22,13.430844,+013.25.51,35,background,urban,urban,unknown,DE008A
DEBE051,DEBE051,B Buch,19930201,,52.643525,+052.38.36,13.489531,+013.29.22,60,background,suburban,suburban,unknown,DE008A
DEBE056,DEBE056,B Friedrichshagen,19940201,,52.447697,+052.26.51,13.64705,+013.38.49,35,background,rural,rural,near-city,DE008A
DEBE061,DEBE061,B Steglitz-Schildhornstr.,19941101,,52.463611,+052.27.48,13.31825,+013.19.5,45,traffic,urban,urban,unknown,DE008A
DEBE062,DEBE062,"B Frohnau, Funkturm (3.5 m)",19960201,,52.653269,+052.39.11,13.296081,+013.17.45,50,background,rural,rural,near-city,DE008A
DEBE063,DEBE063,B Neukölln-Silbersteinstr.,19960501,,52.467534,+052.28.3,13.441654,+013.26.29,40,traffic,urban,urban,unknown,DE008A
DEBE064,DEBE064,B Neukölln-Karl-Marx-Str. 76,19930801,,52.481709,+052.28.54,13.433967,+013.26.2,40,traffic,urban,urban,unknown,DE008A
DEBE065,DEBE065,B Friedrichshain-Frankfurter Allee,19930901,,52.514072,+052.30.50,13.469931,+013.28.11,40,traffic,urban,urban,unknown,DE008A
DEBE066,DEBE066,B Karlshorst-Rheingoldstr./Königswinterstr.,19990701,,52.485261,+052.29.6,13.529503,+013.31.46,35,background,urban,urban,unknown,DE008A
DEBE067,DEBE067,B Hardenbergplatz,20040101,,52.5066,+052.30.23,13.332972,+013.19.58,35,traffic,urban,urban,unknown,DE008A
DEBE068,DEBE068,"B Mitte, Brückenstraße",20030101,,52.513606,+052.30.48,13.418833,+013.25.7,35,background,urban,urban,unknown,DE008A
DEBE069,DEBE069,"B Mariendorf, Mariendorfer Damm",20090101,,52.438115,+052.26.17,13.38772,+013.23.15,50,traffic,urban,urban,unknown,DE008A
DEBE070,DEBE070,"Dep_Grunewald, Jagen 91",20050101,,52.478,+052.28.40,13.225,+013.13.29,,background,rural,rural background,remote,DE008A
DEBE071,DEBE071,"Dep_Grunewald, Jagen 63",20050101,,52.472,+052.28.19,13.227,+013.13.37,,background,rural,rural background,remote,DE008A
DEBE072,DEBE072,Dep_Koepenick,20050101,,52.432,+052.25.55,13.615,+013.36.54,,background,rural,rural background,remote,DE008A
DEBW004,DEBW004,Eggenstein,19760901,,49.07655,+049.4.35,8.40666,+08.24.23,109,background,rural,rural,near-city,DE005A
DEBW005,DEBW005,Mannheim-Nord,19750101,,49.544078,+049.32.38,8.465281,+08.27.55,94,industrial,suburban,suburban,unknown,DE005A
DEBW006,DEBW006,Mannheim-Mitte,19750101,,49.475758,+049.28.32,8.478017,+08.28.40,94,background,urban,urban,unknown,DE005A
DEBW009,DEBW009,Heidelberg,19840101,,49.419528,+049.25.10,8.6767,+08.40.36,112,background,urban,urban,unknown,DE005A
DEBW010,DEBW010,Wiesloch,19860501,,49.300731,+049.18.2,8.700103,+08.42.0,162,background,suburban,suburban,unknown,DE005A
DEBW013,DEBW013,Stuttgart Bad Cannstatt,19810101,,48.8088,+048.48.31,9.229745,+09.13.47,235,background,urban,urban,unknown,DE005A
DEBW015,DEBW015,Heilbronn,19791101,,49.165508,+049.9.55,9.224786,+09.13.29,157,background,suburban,suburban,unknown,DE005A
DEBW019,DEBW019,Ulm,19781001,,48.396836,+048.23.48,9.979031,+09.58.44,481,background,urban,urban,unknown,DE005A
DEBW022,DEBW022,Kehl,19820201,,48.578178,+048.34.41,7.802317,+07.48.8,136,industrial,suburban,suburban,unknown,DE005A
DEBW023,DEBW023,Weil am Rhein,19820201,,47.588152,+047.35.17,7.633271,+07.37.59,275,background,suburban,suburban,unknown,DE005A
DEBW024,DEBW024,Ludwigsburg,19820301,,48.899233,+048.53.57,9.172792,+09.10.22,302,background,suburban,suburban,unknown,DE005A
DEBW026,DEBW026,Plochingen,19820201,,48.708653,+048.42.31,9.414453,+09.24.52,252,background,suburban,suburban,unknown,DE005A
DEBW027,DEBW027,Reutlingen,19820201,,48.488887,+048.29.19,9.20732,+09.12.26,385,background,urban,urban,unknown,DE005A
DEBW029,DEBW029,Aalen,19820301,,48.847917,+048.50.52,10.096292,+010.5.46,424,background,suburban,suburban,unknown,DE005A
DEBW031,DEBW031,Schwarzwald-Süd,19840101,,47.809892,+047.48.35,7.764528,+07.45.52,904,background,rural,rural,regional,DE005A
DEBW033,DEBW033,Pforzheim,19890401,,48.889039,+048.53.20,8.665536,+08.39.55,278,background,urban,urban,unknown,DE005A
DEBW038,DEBW038,Friedrichshafen,19870101,,47.660056,+047.39.36,9.485675,+09.29.8,404,background,urban,urban,unknown,DE005A
DEBW039,DEBW039,Villingen-Schwenningen,19870601,,48.048656,+048.2.55,8.463597,+08.27.48,700,background,suburban,suburban,unknown,DE005A
DEBW042,DEBW042,Bernhausen,19891201,,48.678069,+048.40.41,9.227769,+09.13.39,370,background,suburban,suburban,unknown,DE005A
DEBW046,DEBW046,Biberach,19901101,,48.089886,+048.5.23,9.800325,+09.48.1,534,background,suburban,suburban,unknown,DE005A
DEBW052,DEBW052,Konstanz,19900901,,47.664361,+047.39.51,9.169289,+09.10.9,403,background,urban,urban,unknown,DE005A
DEBW056,DEBW056,Schwäbisch_Hall,19910101,,49.107878,+049.6.28,9.733231,+09.43.59,306,background,suburban,suburban,unknown,DE005A
DEBW059,DEBW059,Tauberbischofsheim,19901101,,49.634841,+049.38.5,9.657919,+09.39.28,177,background,suburban,suburban,unknown,DE005A
DEBW073,DEBW073,Neuenburg,19921101,,47.819019,+047.49.8,7.567969,+07.34.4,223,background,suburban,suburban,unknown,DE005A
DEBW076,DEBW076,Baden-Baden,19930422,,48.773072,+048.46.23,8.220214,+08.13.12,148,background,suburban,suburban,unknown,DE005A
DEBW080,DEBW080,Karlsruhe_Reinhold-Frank-Strasse,19940315,,49.00796,+049.0.28,8.38719,+08.23.13,119,traffic,urban,urban,unknown,DE005A
DEBW081,DEBW081,Karlsruhe-Nordwest,19850301,,49.028594,+049.1.42,8.355628,+08.21.20,114,background,urban,urban,unknown,DE005A
DEBW084,DEBW084,Freiburg,19790601,,48.001511,+048.0.5,7.832122,+07.49.55,262,background,urban,urban,unknown,DE005A
DEBW087,DEBW087,Schwäbische_Alb,19940427,,48.345778,+048.20.44,9.207639,+09.12.27,798,background,rural,rural,regional,DE005A
DEBW098,DEBW098,Mannheim_Friedrichsring,19940428,,49.49256,+049.29.33,8.47204,+08.28.19,101,traffic,urban,urban,unknown,DE005A
DEBW099,DEBW099,Stuttgart_Arnulf-Klett-Platz,19941206,,48.78313,+048.46.59,9.18072,+09.10.50,244,traffic,urban,urban,unknown,DE005A
DEBW107,DEBW107,Tübingen,20020122,,48.507703,+048.30.27,9.051178,+09.3.4,325,background,suburban,suburban,unknown,DE005A
DEBW112,DEBW112,Gaertringen,20051221,,48.645608,+048.38.44,8.904442,+08.54.15,466,background,suburban,suburban,unknown,DE005A
DEBW116,DEBW116,Stuttgart Hohenheimer Straße (S),20031223,,48.76871,+048.46.7,9.18449,+09.11.4,302,traffic,urban,urban,unknown,DE005A
DEBW117,DEBW117,Ludwigsburg Friedrichstraße (S),20031223,,48.8892,+048.53.21,9.19003,+09.11.24,299,traffic,urban,urban,unknown,DE005A
DEBW118,DEBW118,Stuttgart Am Neckartor (S),20031223,,48.7881,+048.47.17,9.19101,+09.11.27,239,traffic,urban,urban,unknown,DE005A
DEBW120,DEBW120,Leonberg Grabenstraße (S),20041229,,48.80102,+048.48.3,9.01652,+09.0.59,387,traffic,urban,urban,unknown,DE005A
DEBW121,DEBW121,Pleidelsheim Beihinger Straße (S),20040107,,48.95934,+048.57.33,9.20515,+09.12.18,195,traffic,urban,urban,unknown,DE005A
DEBW122,DEBW122,Freiburg Schwarzwaldstraße (V),20041227,,47.9882,+047.59.17,7.85992,+07.51.35,289,traffic,urban,urban,unknown,DE005A
DEBW125,DEBW125,Pfinztal Karlsruher Straße (S),20060101,,49.00371,+049.0.13,8.52628,+08.31.34,135,traffic,suburban,suburban,unknown,DE005A
DEBW126,DEBW126,Karlsruhe Kriegsstraße (S),20060101,,49.00536,+049.0.19,8.36927,+08.22.9,117,traffic,urban,urban,unknown,DE005A
DEBW127,DEBW127,Freiburg Zähringer Straße (S),20040101,,48.01343,+048.0.48,7.85502,+07.51.18,257,traffic,urban,urban,unknown,DE005A
DEBW128,DEBW128,Mühlacker Stuttgarter Straße (S),20060101,,48.9466,+048.56.47,8.84569,+08.50.44,243,traffic,suburban,suburban,unknown,DE005A
DEBW130,DEBW130,Pforzheim Jahnstraße (S),20050101,,48.88803,+048.53.16,8.69587,+08.41.45,256,traffic,urban,urban,unknown,DE005A
DEBW133,DEBW133,Ilsfeld König-Wilhelm-Straße (S),20040101,,49.05513,+049.3.18,9.24402,+09.14.38,230,traffic,suburban,suburban,unknown,DE005A
DEBW134,DEBW134,Stuttgart Waiblinger Straße,20040101,,48.80377,+048.48.13,9.22036,+09.13.13,223,traffic,urban,urban,unknown,DE005A
DEBW135,DEBW135,Herrenberg Hindenburger Straße (S),20060101,,48.59476,+048.35.41,8.86912,+08.52.8,432,traffic,urban,urban,unknown,DE005A
DEBW136,DEBW136,Tübingen Mühlstraße (S),20040101,,48.52023,+048.31.12,9.05802,+09.3.28,340,traffic,urban,urban,unknown,DE005A
DEBW137,DEBW137,Tübingen-Unterjesingen Jesinger Hauptstraße (S),20050101,,48.52639,+048.31.35,8.97944,+08.58.45,355,traffic,rural,rural,unknown,DE005A
DEBW138,DEBW138,Ulm Zinglerstraße (S),20060101,,48.39463,+048.23.40,9.98348,+09.59.0,481,traffic,urban,urban,unknown,DE005A
DEBW142,DEBW142,Markgröningen Grabenstraße (S),20070101,,48.90292,+048.54.10,9.08135,+09.4.52,276,traffic,suburban,suburban,unknown,DE005A
DEBW144,DEBW144,Walzbachtal-Jöhlingen Bahnhofstraße (S),20070101,,49.02757,+049.1.39,8.57697,+08.34.37,168,traffic,suburban,suburban,unknown,DE005A
DEBW145,DEBW145,Heidenheim Wilhelmstraße (S),20070101,,48.67942,+048.40.45,10.15065,+010.9.2,496,traffic,suburban,suburban,unknown,DE005A
DEBW147,DEBW147,Reutlingen Lederstraße Ost (S),20070321,,48.48933,+048.29.21,9.21079,+09.12.38,382,traffic,urban,urban,unknown,DE005A
DEBW148,DEBW148,Ingersheim Tiefengasse (S),20080101,,48.96047,+048.57.37,9.18403,+09.11.2,208,traffic,suburban,suburban,unknown,DE005A
DEBW149,DEBW149,Urbach Hauptstraße (S),20080101,,48.80923,+048.48.33,9.57939,+09.34.45,265,traffic,suburban,suburban,unknown,DE005A
DEBW150,DEBW150,Murg Hauptstraße (S),20080101,,47.55362,+047.33.13,8.02117,+08.1.16,300,traffic,suburban,suburban,unknown,DE005A
DEBW151,DEBW151,Heidelberg Mittermaierstraße (S),20090101,,49.40725,+049.24.26,8.677,+08.40.37,117,traffic,urban,urban,unknown,DE005A
DEBW152,DEBW152,Heilbronn Weinsberger Straße Ost (S),20090101,,49.146,+049.8.45,9.22589,+09.13.33,165,traffic,urban,urban,unknown,DE005A
DEBW153,DEBW153,Ulm Karlstraße (S),20090101,,48.40412,+048.24.14,9.98726,+09.59.14,481,traffic,urban,urban,unknown,DE005A
DEBW154,DEBW154,Freiberg Benninger Straße,20080101,,48.93795,+048.56.16,9.20434,+09.12.15,193,traffic,suburban,suburban,unknown,DE005A
DEBW155,DEBW155,"Schwäbisch Gmünd, Remsstraße (S)",20090101,,48.8024,+048.48.8,9.79584,+09.47.45,325,traffic,urban,urban,unknown,DE005A
DEBW156,DEBW156,Schramberg Oberndorfer Straße,20110801,,48.22915,+048.13.44,8.39062,+08.23.26,458,traffic,urban,urban,unknown,DE005A
DEBW158,DEBW158,Forst_Hockenheim,19961015,,49.3333,+049.19.59,8.6065,+08.36.23,100,background,rural,rural,unknown,DE005A
DEBW159,DEBW159,FVA Pflanzgarten,19971010,,47.976319,+047.58.34,7.844395,+07.50.39,295,background,rural,rural,unknown,DE005A
DEBW160,DEBW160,Forst_Hartheim,20000417,,47.9344,+047.56.3,7.5948,+07.35.41,200,background,rural,rural,unknown,DE005A
DEBW161,DEBW161,Forst_Heidelberg,20050101,,49.4643,+049.27.51,8.7545,+08.45.16,,background,rural,rural,unknown,DE005A
DEBW162,DEBW162,"Forst_Wallduern, Mudau",19950425,,49.5289,+049.31.44,9.174,+09.10.26,515,background,rural,rural,unknown,DE005A
DEBW163,DEBW163,Forst_Rotenfels,20031022,,48.8141,+048.48.50,8.3965,+08.23.47,600,background,rural,rural,unknown,DE005A
DEBW164,DEBW164,Forst_Büchenbronn,20061025,,48.8547,+048.51.16,8.672,+08.40.19,305,background,rural,rural,unknown,DE005A
DEBW165,DEBW165,Forst_Gengenbach,20030922,,48.4316,+048.25.53,8.1467,+08.8.48,780,background,rural,rural,unknown,DE005A
DEBW166,DEBW166,Blauen,20050101,,47.782,+047.46.55,7.7022,+07.42.7,1020,background,rural,rural,unknown,DE005A
DEBW167,DEBW167,Forst_Altensteig (Egenhausen),20090526,,48.5954,+048.35.43,8.6489,+08.38.56,490,background,rural,rural,unknown,DE005A
DEBW168,DEBW168,Forst_Altensteig (Berneck),19910705,,48.6012,+048.36.4,8.6455,+08.38.43,490,background,rural,rural,unknown,DE005A
DEBW170,DEBW170,Forst_Schauinsland,19851121,,47.9147,+047.54.52,7.9093,+07.54.33,1200,background,rural,rural,regional,DE005A
DEBW171,DEBW171,"Forst_St.Maergen, Conventwald",19920101,,48.0219,+048.1.18,7.967,+07.58.1,750,background,rural,rural,unknown,DE005A
DEBW172,DEBW172,Forst_Neckarwestheim,19961025,,49.0359,+049.2.9,9.2432,+09.14.35,290,background,rural,rural,unknown,DE005A
DEBW173,DEBW173,Forst_Welzheim,19921029,,48.8808,+048.52.50,9.5799,+09.34.47,550,background,rural,rural,unknown,DE005A
DEBW174,DEBW174,Forst_Schönbuch,19830819,,48.5895,+048.35.22,9.0556,+09.3.20,450,background,rural,rural,unknown,DE005A
DEBW176,DEBW176,Forst_Schwäbisch Hall,20071009,,49.026607,+049.1.35,9.801541,+09.48.5,510,background,rural,rural,unknown,DE005A
DEBW177,DEBW177,Forst_Rosenfeld (Brittheim),19950922,,48.2973,+048.17.50,8.6631,+08.39.47,660,background,rural,rural,unknown,DE005A
DEBW178,DEBW178,Forst_TBB-Großrinderfeld,19951016,,49.6908,+049.41.26,9.7597,+09.45.34,395,background,rural,rural,unknown,DE005A
DEBW179,DEBW179,Forst_Jettingen,20051019,,48.5941,+048.35.38,8.8005,+08.48.1,,background,rural,rural,unknown,DE005A
DEBW180,DEBW180,Forst_Löffingen,19891030,,47.9285,+047.55.42,8.3207,+08.19.14,880,background,rural,rural,unknown,DE005A
DEBW181,DEBW181,Forst_Grubenhau,19961101,,48.5472,+048.32.49,10.1576,+010.9.27,515,background,rural,rural,unknown,DE005A
DEBW182,DEBW182,Forst_Blumberg,19870401,,47.7943,+047.47.39,8.5558,+08.33.20,870,background,rural,rural,unknown,DE005A
DEBW183,DEBW183,Forst_Tuttlingen,19940929,,47.9961,+047.59.45,8.997,+08.59.49,730,background,rural,rural,unknown,DE005A
DEBW184,DEBW184,Forst_Brunnenholzried,19851206,,47.951,+047.57.3,9.7203,+09.43.13,585,background,rural,rural,unknown,DE005A
DEBW185,DEBW185,Forst_Fronhofen,19941027,,47.8599,+047.51.35,9.4915,+09.29.29,700,background,rural,rural,unknown,DE005A
DEBW186,DEBW186,Forst_Ochsenhausen-Steinhausen,20080604,,48.0155,+048.0.55,9.9669,+09.58.0,665,background,rural,rural,unknown,DE005A
DEBW187,DEBW187,Forst_Isny,20091022,,47.7323,+047.43.56,10.0895,+010.5.22,920,background,rural,rural,unknown,DE005A
DEBW188,DEBW188,Depo_Gerabronn,20070101,,49.251141,+049.15.4,9.929172,+09.55.45,466,background,rural,rural,unknown,DE005A
DEBW189,DEBW189,Depo_Karlsruhe Hertzstraße,20070101,,49.037136,+049.2.13,8.363847,+08.21.49,113,background,suburban,suburban,unknown,DE005A
DEBW190,DEBW190,Depo_Kehl Kinzigallee,20070101,,48.574366,+048.34.27,7.819889,+07.49.11,135,background,suburban,suburban,unknown,DE005A
DEBW191,DEBW191,Depo_Bad Wurzach,20070101,,47.934538,+047.56.4,9.897128,+09.53.49,660,background,rural,rural,unknown,DE005A
DEBW192,DEBW192,Depo_Illmensee,20070101,,47.830263,+047.49.48,9.388747,+09.23.19,832,background,rural,rural,unknown,DE005A
DEBW193,DEBW193,Depo_Isny im Allgäu,20070101,,47.72335,+047.43.24,10.065433,+010.3.55,699,background,rural,rural,unknown,DE005A
DEBW194,DEBW194,Depo_Stötten,20070101,,48.665694,+048.39.56,9.86475,+09.51.53,732,background,rural,rural,unknown,DE005A
DEBW196,DEBW196,Fellbach Burgstraße,20140101,,48.804628,+048.48.16,9.277553,+09.16.39,302,background,suburban,suburban,unknown,DE005A
DEBW197,DEBW197,Lahr Reichenbacher Hauptstraße,20130101,,48.33051,+048.19.49,7.92429,+07.55.27,194,traffic,suburban,suburban,unknown,DE005A
DEBW198,DEBW198,Mögglingen Hauptstraße,20130101,,48.82276,+048.49.21,9.96404,+09.57.50,413,traffic,suburban,suburban,unknown,DE005A
DEBW201,DEBW201,Forst_Esslingen,20111101,,48.7672,+048.46.1,9.4378,+09.26.16,413,background,rural,rural,unknown,DE005A
DEBW202,DEBW202,Horb Neckarstr.,20140101,,48.469139,+048.28.8,8.630253,+08.37.48,395,background,suburban,suburban,unknown,DE005A
DEBW203,DEBW203,Untermünkheim Hohenloher Str.,20140101,,49.15244,+049.9.8,9.73401,+09.44.2,270,background,suburban,suburban,unknown,DE005A
DEBW204,DEBW204,Dep_AltensteigFichte,20100101,,48.7672,+048.46.1,9.4378,+09.26.16,413,background,rural,rural,unknown,DE005A
DEBW205,DEBW205,Dep_HeidelbergBuche,20100101,,48.7672,+048.46.1,9.4378,+09.26.16,413,background,rural,rural,unknown,DE005A
DEBW206,DEBW206,Dep_St.MaergenBuche,20100101,,48.7672,+048.46.1,9.4378,+09.26.16,413,background,rural,rural,unknown,DE005A
DEBW207,DEBW207,Dep_OchsenhausenBuche,20100101,,48.7672,+048.46.1,9.4378,+09.26.16,413,background,rural,rural,unknown,DE005A
DEBW208,DEBW208,Dep_AltensteigBuche,20100101,,48.7672,+048.46.1,9.4378,+09.26.16,413,background,rural,rural,unknown,DE005A
DEBW209,DEBW209,Dep_EsslingenBuche,20100101,,48.7672,+048.46.1,9.4378,+09.26.16,413,background,rural,rural,unknown,DE005A
DEBY001,DEBY001,Ansbach/Residenzstraße,19890701,,49.304889,+049.18.17,10.572297,+010.34.20,400,traffic,urban,urban,unknown,DE007A
DEBY002,DEBY002,Arzberg/Egerstraße,19800101,,50.058195,+050.3.29,12.18865,+012.11.19,480,background,urban,urban,unknown,DE007A
DEBY004,DEBY004,Kleinwallstadt/Hofstetter Straße,19780801,,49.869422,+049.52.9,9.171544,+09.10.17,124,background,rural,rural,near-city,DE007A
DEBY005,DEBY005,Aschaffenburg/Bussardweg,19780801,,49.991518,+049.59.29,9.117973,+09.7.4,134,background,suburban,suburban,unknown,DE007A
DEBY006,DEBY006,Augsburg/Königsplatz,19750101,,48.364589,+048.21.52,10.895029,+010.53.42,492,traffic,urban,urban,unknown,DE007A
DEBY007,DEBY007,Augsburg/Bourges-Platz,19860801,,48.376576,+048.22.35,10.88837,+010.53.18,477,background,urban,urban,unknown,DE007A
DEBY009,DEBY009,Bamberg/Löwenbrücke,19780101,,49.89833,+049.53.53,10.887686,+010.53.15,231,background,urban,urban,unknown,DE007A
DEBY012,DEBY012,Burghausen/Marktler Straße,19760101,,48.177175,+048.10.37,12.829314,+012.49.45,420,background,suburban,suburban,unknown,DE007A
DEBY013,DEBY013,Mehring/Sportplatz,19770301,,48.182835,+048.10.58,12.781387,+012.46.52,415,background,rural,rural,regional,DE007A
DEBY014,DEBY014,Coburg/Lossaustraße,19870201,,50.260578,+050.15.38,10.959312,+010.57.33,291,traffic,urban,urban,unknown,DE007A
DEBY020,DEBY020,Hof/LfU,19880601,,50.320611,+050.19.14,11.897492,+011.53.50,525,background,suburban,suburban,unknown,DE007A
DEBY021,DEBY021,Ingolstadt/Rechbergstraße,19890601,,48.769444,+048.46.9,11.428766,+011.25.43,374,traffic,urban,urban,unknown,DE007A
DEBY026,DEBY026,Vohburg a.d. Donau/Austraße,19780801,,48.769026,+048.46.8,11.616808,+011.37.0,356,background,suburban,suburban,unknown,DE007A
DEBY028,DEBY028,Kelheim/Regensburger Straße,19750101,,48.909518,+048.54.34,11.879245,+011.52.45,348,traffic,urban,urban,unknown,DE007A
DEBY030,DEBY030,Saal a.d. Donau/Regensburger Straße,19780801,,48.904228,+048.54.15,11.948795,+011.56.55,340,background,suburban,suburban,unknown,DE007A
DEBY031,DEBY031,Kempten (Allgäu)/Westendstraße,19760101,,47.72514,+047.43.30,10.306561,+010.18.23,678,background,suburban,suburban,unknown,DE007A
DEBY032,DEBY032,Kulmbach/Konrad-Adenauer-Straße,19881001,,50.103135,+050.6.11,11.442591,+011.26.33,303,background,urban,urban,unknown,DE007A
DEBY033,DEBY033,Landshut/Podewilsstraße,19851201,,48.539801,+048.32.23,12.157051,+012.9.25,390,traffic,urban,urban,unknown,DE007A
DEBY035,DEBY035,Lindau (Bodensee)/Friedrichshafener Straße,20131212,,47.557473,+047.33.26,9.688869,+09.41.19,411,traffic,urban,urban,unknown,DE007A
DEBY037,DEBY037,München/Stachus,19780101,,48.137252,+048.8.14,11.564924,+011.33.53,521,traffic,urban,urban,unknown,DE007A
DEBY039,DEBY039,München/Lothstraße,19780101,,48.154534,+048.9.16,11.554669,+011.33.16,521,background,urban,urban,unknown,DE007A
DEBY047,DEBY047,Naila/Selbitzer Berg,19860101,,50.323245,+050.19.23,11.721605,+011.43.17,534,background,rural,rural,near-city,DE007A
DEBY049,DEBY049,Neustadt a.d. Donau/Eining,19770301,,48.853211,+048.51.11,11.777818,+011.46.40,359,background,rural,rural,regional,DE007A
DEBY052,DEBY052,Neu-Ulm/Gabelsbergerstraße,19780101,,48.397079,+048.23.49,10.008293,+010.0.29,470,background,urban,urban,unknown,DE007A
DEBY053,DEBY053,Nürnberg/Bahnhof,19860901,,49.44591,+049.26.45,11.088444,+011.5.18,307,traffic,urban,urban,unknown,DE007A
DEBY056,DEBY056,Fürth/Theresienstraße,19901101,,49.47221,+049.28.19,10.984705,+010.59.4,293,traffic,urban,urban,unknown,DE007A
DEBY058,DEBY058,Nürnberg/Muggenhof,19780801,,49.462229,+049.27.44,11.025473,+011.1.31,300,background,urban,urban,unknown,DE007A
DEBY062,DEBY062,Regen/Bodenmaiser Straße,19890201,,48.9724,+048.58.20,13.128932,+013.7.44,545,background,suburban,suburban,unknown,DE007A
DEBY063,DEBY063,Regensburg/Rathaus,19750101,,49.019013,+049.1.8,12.101855,+012.6.6,335,traffic,urban,urban,unknown,DE007A
DEBY067,DEBY067,Schwandorf/Wackersdorfer Straße,19800101,,49.321955,+049.19.19,12.128139,+012.7.41,380,background,suburban,suburban,unknown,DE007A
DEBY068,DEBY068,Schweinfurt/Obertor,19760101,,50.048397,+050.2.54,10.232076,+010.13.55,231,background,urban,urban,unknown,DE007A
DEBY072,DEBY072,Tiefenbach/Altenschneeberg,19831001,,49.438464,+049.26.18,12.548869,+012.32.55,755,background,rural,rural,regional,DE007A
DEBY075,DEBY075,Weiden i.d.OPf./Nikolaistraße,19800101,,49.67895,+049.40.44,12.159361,+012.9.33,400,background,urban,urban,unknown,DE007A
DEBY077,DEBY077,Würzburg/Kopfklinik,19750101,,49.804695,+049.48.16,9.95642,+09.57.23,226,background,suburban,suburban,unknown,DE007A
DEBY079,DEBY079,Bad Reichenhall/Nonn,19920501,,47.723186,+047.43.23,12.858856,+012.51.31,465,background,suburban,suburban,unknown,DE007A
DEBY088,DEBY088,Trostberg/Schwimmbadstraße,19920501,,48.021657,+048.1.17,12.538174,+012.32.17,488,background,suburban,suburban,unknown,DE007A
DEBY089,DEBY089,München/Johanneskirchen,19930701,,48.173194,+048.10.23,11.648036,+011.38.52,513,background,suburban,suburban,unknown,DE007A
DEBY093,DEBY093,Sulzbach-Rosenberg/Lohe,19990511,,49.487983,+049.29.16,11.786341,+011.47.10,393,background,suburban,suburban,unknown,DE007A
DEBY099,DEBY099,Augsburg/LfU,20000727,,48.326013,+048.19.33,10.903051,+010.54.10,495,background,suburban,suburban,unknown,DE007A
DEBY109,DEBY109,Andechs/Rothenfeld,20030417,,47.968753,+047.58.7,11.220172,+011.13.12,700,background,rural,rural,regional,DE007A
DEBY110,DEBY110,Augsburg/Karlstraße,20030801,,48.370237,+048.22.12,10.896221,+010.53.46,485,traffic,urban,urban,unknown,DE007A
DEBY111,DEBY111,Bayreuth/Hohenzollernring,20030801,,49.943637,+049.56.37,11.570088,+011.34.12,337,traffic,urban,urban,unknown,DE007A
DEBY113,DEBY113,Erlangen/Kraepelinstraße,20040401,,49.605914,+049.36.21,10.963528,+010.57.48,284,background,suburban,suburban,unknown,DE007A
DEBY115,DEBY115,München/Landshuter Allee,20040701,,48.149606,+048.8.58,11.536513,+011.32.11,521,traffic,urban,urban,unknown,DE007A
DEBY118,DEBY118,Passau/Stelzhamerstraße,20050405,,48.573629,+048.34.25,13.422039,+013.25.19,300,background,urban,urban,unknown,DE007A
DEBY119,DEBY119,Würzburg/Stadtring Süd,20051101,,49.790526,+049.47.25,9.947654,+09.56.51,198,traffic,urban,urban,unknown,DE007A
DEBY120,DEBY120,Nürnberg/Von-der-Tann-Straße,20061101,,49.440478,+049.26.25,11.036096,+011.2.9,308,traffic,urban,urban,unknown,DE007A
DEBY121,DEBY121,Oberaudorf/Inntal-Autobahn,20080101,,47.648459,+047.38.54,12.188324,+012.11.17,469,traffic,rural,rural,unknown,DE007A
DEBY122,DEBY122,Bad Hindelang/Oberjoch,20100621,,47.518013,+047.31.4,10.404232,+010.24.15,1169,background,rural,rural,regional,DE007A
DEBY123,DEBY123,Garmisch-Partenkirchen/Am Herrgottschrofen,20120101,,47.483194,+047.28.59,11.062283,+011.3.44,720,background,rural,rural,near-city,DE007A
DEBY124,DEBY124,Burgbernheim/Am Hessinggraben,20120101,,49.444516,+049.26.40,10.316582,+010.18.59,384,background,rural,rural,regional,DE007A
DEBY125,DEBY125,NSG Feuerbachmoor,20030319,,50.2177,+050.13.3,9.8252,+09.49.30,412,industrial,rural,rural,unknown,DE007A
DEBY127,DEBY127,Feilitzsch,19930422,,50.3699,+050.22.11,11.9456,+011.56.44,510,background,rural,rural,regional,DE007A
DEBY131,DEBY131,NSG Niederhofen,20030402,,49.043,+049.2.34,11.0168,+011.1.0,507,background,rural,rural,regional,DE007A
DEBY132,DEBY132,Rieden,19930422,,49.3307,+049.19.50,11.9153,+011.54.55,425,background,rural,rural,regional,DE007A
DEBY134,DEBY134,Kaisheim,19930713,,48.7712,+048.46.16,10.7872,+010.47.13,488,background,rural,rural,regional,DE007A
DEBY135,DEBY135,Neusling,20041229,,48.6939,+048.41.38,12.8751,+012.52.30,345,background,rural,rural,regional,DE007A
DEBY136,DEBY136,St. Oswald-Riedlhütte,19940322,,48.9371,+048.56.13,13.4127,+013.24.45,785,background,rural,rural,regional,DE007A
DEBY138,DEBY138,Prittriching,19930518,,48.2104,+048.12.37,10.9053,+010.54.19,530,background,rural,rural,regional,DE007A
DEBY139,DEBY139,Aschheim,19910401,,48.2017,+048.12.6,11.6959,+011.41.45,490,background,rural,rural,regional,DE007A
DEBY140,DEBY140,Altötting,19930506,,48.2173,+048.13.2,12.749,+012.44.56,415,background,rural,rural,regional,DE007A
DEBY142,DEBY142,Lautrach,20041229,,47.9018,+047.54.6,10.1162,+010.6.58,610,background,rural,rural,regional,DE007A
DEBY143,DEBY143,NSG Bannwaldsee,20030319,,47.612,+047.36.43,10.7868,+010.47.12,790,background,rural,rural,regional,DE007A
DEBY145,DEBY145,Sylvenstein,20080625,,47.589,+047.35.20,11.5502,+011.33.0,724,background,rural,rural,regional,DE007A
DEBY146,DEBY146,DBS Eining,19940322,,48.858,+048.51.28,11.7813,+011.46.52,360,background,rural,rural,regional,DE007A
DEBY147,DEBY147,DBS Grassau,19930617,,47.7905,+047.47.25,12.4469,+012.26.48,530,background,rural,rural,regional,DE007A
DEBY148,DEBY148,DBS München,20020320,,48.1624,+048.9.44,11.6012,+011.36.4,502,background,urban,urban,unknown,DE007A
DEBY149,DEBY149,DBS Weibersbrunn,19950531,,49.9039,+049.54.14,9.448,+09.26.52,380,background,rural,rural,regional,DE007A
DEBY150,DEBY150,DBS Augsburg,19980722,,48.3391,+048.20.20,10.9086,+010.54.30,485,background,urban,urban,unknown,DE007A
DEBY151,DEBY151,DBS Bidingen,19980429,,47.8073,+047.48.26,10.7241,+010.43.26,760,background,rural,rural,regional,DE007A
DEBY152,DEBY152,DBS Kulmbach,20020320,,50.0872,+050.5.13,11.4026,+011.24.9,300,background,urban,urban,unknown,DE007A
DEBY153,DEBY153,DBS Möhrendorf,20070516,,49.6257,+049.37.32,10.9864,+010.59.11,270,background,rural,rural,regional,DE007A
DEBY154,DEBY154,Südliche Frankenalb,19960603,,49.071094,+049.4.15,11.794678,+011.47.40,490,background,rural,rural,unknown,DE007A
DEBY155,DEBY155,Donau-Gäuboden,19960502,,48.852897,+048.51.10,12.589967,+012.35.23,339,background,rural,rural,unknown,DE007A
DEBY156,DEBY156,Nördliches Lechfeld,19951116,,48.241389,+048.14.29,10.907622,+010.54.27,522,background,rural,rural,unknown,DE007A
DEBY157,DEBY157,Münchener Schotterebene Freilandfläche,19931115,,48.138489,+048.8.18,11.857947,+011.51.28,523,background,rural,rural,unknown,DE007A
DEBY159,DEBY159,Fichtelgebirge Freilandfläche,19870902,,50.143556,+050.8.36,11.861697,+011.51.42,760,background,rural,rural,unknown,DE007A
DEBY160,DEBY160,Fichtelgebirge Bestandsfläche,19870831,,50.134944,+050.8.5,11.861722,+011.51.42,770,background,rural,rural,unknown,DE007A
DEBY161,DEBY161,Bayerischer Wald Bestandsfläche,19880101,,48.961164,+048.57.40,13.429294,+013.25.45,970,background,rural,rural,unknown,DE007A
DEBY162,DEBY162,Hochspessart Freilandfläche,19870706,,49.904225,+049.54.15,9.447878,+09.26.52,410,background,rural,rural,unknown,DE007A
DEBY163,DEBY163,Hochspessart Bestandsfläche,19870706,,49.902253,+049.54.8,9.446467,+09.26.47,430,background,rural,rural,unknown,DE007A
DEBY164,DEBY164,Bayerischer Wald Freilandfläche,19880101,,48.960139,+048.57.36,13.427625,+013.25.39,980,background,rural,rural,unknown,DE007A
DEBY165,DEBY165,Dep_Altdorf,19910201,,49.41833,+049.25.5,11.31389,+011.18.50,406,background,rural,rural,unknown,DE007A
DEBY166,DEBY166,Dep_Altötting,19911101,,48.2175,+048.13.3,12.751389,+012.45.5,410,background,rural,rural,unknown,DE007A
DEBY167,DEBY167,Dep_BBR,20000101,,50.35278,+050.21.10,9.92167,+09.55.18,780,background,rural,rural,unknown,DE007A
DEBY168,DEBY168,Dep_Berchtesgaden,19910801,,47.5756,+047.34.32,12.94389,+012.56.38,1500,background,rural,rural,unknown,DE007A
DEBY170,DEBY170,Dep_Dinkelsbühl,19910201,,49.1233,+049.7.23,10.590278,+010.35.25,460,background,rural,rural,unknown,DE007A
DEBY171,DEBY171,Dep_Ebersberg,19910401,,48.126944,+048.7.36,11.919167,+011.55.9,538,background,rural,rural,unknown,DE007A
DEBY173,DEBY173,Dep_Flossenbürg,19930701,,49.761389,+049.45.41,12.39167,+012.23.30,833,background,rural,rural,unknown,DE007A
DEBY174,DEBY174,Dep_Freising,19940701,,48.411667,+048.24.42,11.660555,+011.39.37,508,background,rural,rural,unknown,DE007A
DEBY175,DEBY175,Dep_Goldkronach,19930701,,49.9775,+049.58.38,11.80833,+011.48.29,835,background,rural,rural,unknown,DE007A
DEBY176,DEBY176,Dep_Kreuth,20000101,,47.7244,+047.43.27,11.67944,+011.40.45,1180,background,rural,rural,unknown,DE007A
DEBY178,DEBY178,Dep_Mitterfels,19910401,,48.975278,+048.58.31,12.885278,+012.53.7,1025,background,rural,rural,unknown,DE007A
DEBY180,DEBY180,Dep_Riedenburg,19910201,,48.922222,+048.55.19,11.753611,+011.45.12,460,background,rural,rural,unknown,DE007A
DEBY181,DEBY181,Dep_Rothenkirchen,19950701,,50.451667,+050.27.6,11.35,+011.20.59,670,background,rural,rural,unknown,DE007A
DEBY182,DEBY182,Dep_Rothenbuch,19931001,,49.980278,+049.58.49,9.4625,+09.27.45,461,background,rural,rural,unknown,DE007A
DEBY184,DEBY184,Dep_Sonthofen,19940701,,47.571111,+047.34.15,10.389444,+010.23.21,1240,background,rural,rural,unknown,DE007A
DEBY185,DEBY185,Dep_Würzburg,19950901,,49.735,+049.44.5,9.878333,+09.52.41,305,background,rural,rural,unknown,DE007A
DEBY187,DEBY187,Oettingen/Goethestraße,20120726,,48.95218,+048.57.7,10.59772,+010.35.51,417,background,suburban,suburban,unknown,DE007A
DEBY188,DEBY188,Schwabach/Angerstraße,20120701,,49.32273,+049.19.21,11.02792,+011.1.40,344,background,urban,urban,unknown,DE007A
DEBY189,DEBY189,München/Allach,20140128,,48.18169,+048.10.54,11.46445,+011.27.52,510,background,suburban,suburban,unknown,DE007A
DEBY190,DEBY190,Dep_Hoeglwald,20100101,,48.408889,+048.24.32,10.536667,+010.32.12,518,background,rural,rural,unknown,DE007A
DEBY191,DEBY191,Dep_Waldstein,20100101,,48.408889,+048.24.32,10.536667,+010.32.12,518,background,rural,rural,unknown,DE007A
DEHB001,DEHB001,Bremen-Mitte,19870101,,53.077151,+053.4.37,8.81578,+08.48.56,10,background,urban,urban,unknown,DE013A
DEHB002,DEHB002,Bremen-Ost,19870101,,53.060045,+053.3.36,8.916966,+08.55.1,7,background,urban,urban,unknown,DE013A
DEHB004,DEHB004,Bremen-Nord,19890501,,53.180946,+053.10.51,8.625456,+08.37.31,20,background,urban,urban,unknown,DE013A
DEHB005,DEHB005,Bremerhaven,19890501,,53.562455,+053.33.44,8.569405,+08.34.9,3,background,urban,urban,unknown,DE013A
DEHB006,DEHB006,Bremen Verkehr 1,19920501,,53.078663,+053.4.43,8.825173,+08.49.30,7,traffic,urban,urban,unknown,DE013A
DEHB011,DEHB011,Cherbourger Straße,20080101,,53.585262,+053.35.6,8.59876,+08.35.55,4,traffic,urban,urban,unknown,DE013A
DEHB012,DEHB012,Bremen-Oslebshausen,20100501,,53.124561,+053.7.28,8.735047,+08.44.6,8,background,urban,urban,unknown,DE013A
DEHB013,DEHB013,Bremen-Hasenbüren,20100608,,53.1177,+053.7.3,8.69506,+08.41.42,4,industrial,rural,rural,unknown,DE013A
DEHE001,DEHE001,Darmstadt,19950801,,49.872303,+049.52.20,8.664619,+08.39.52,158,background,urban,urban,unknown,DE009A
DEHE005,DEHE005,Frankfurt-Höchst,19790101,,50.101871,+050.6.6,8.542052,+08.32.31,104,background,urban,urban,unknown,DE009A
DEHE008,DEHE008,Frankfurt-Ost,19840101,,50.125332,+050.7.31,8.746343,+08.44.46,100,background,urban,urban,unknown,DE009A
DEHE009,DEHE009,Frankfurt-Sindlingen,20080101,,50.080726,+050.4.50,8.515592,+08.30.56,99,background,urban,urban,unknown,DE009A
DEHE011,DEHE011,Hanau,20130711,,50.13577,+050.8.8,8.92157,+08.55.17,108,background,urban,urban,unknown,DE009A
DEHE013,DEHE013,Kassel-Mitte,19770101,,51.314248,+051.18.51,9.483397,+09.29.0,181,background,urban,urban,unknown,DE009A
DEHE018,DEHE018,Raunheim,19770101,,50.010325,+050.0.37,8.451527,+08.27.5,90,background,urban,urban,unknown,DE009A
DEHE020,DEHE020,Wetzlar,19790101,,50.567185,+050.34.1,8.500619,+08.30.2,152,traffic,urban,urban,unknown,DE009A
DEHE022,DEHE022,Wiesbaden-Süd,19770101,,50.050343,+050.3.1,8.244949,+08.14.41,121,background,urban,urban,unknown,DE009A
DEHE024,DEHE024,Witzenhausen/Wald,19830501,,51.291757,+051.17.30,9.774588,+09.46.28,610,background,rural,rural,unknown,DE009A
DEHE026,DEHE026,Spessart,19860101,,50.16443,+050.9.51,9.399441,+09.23.57,502,background,rural,rural,regional,DE009A
DEHE028,DEHE028,Fürth/Odenwald,19861001,,49.653465,+049.39.12,8.817251,+08.49.2,484,background,rural,rural,unknown,DE009A
DEHE030,DEHE030,Marburg,19880101,,50.804258,+050.48.15,8.769324,+08.46.9,182,background,urban,urban,unknown,DE009A
DEHE032,DEHE032,Bebra,19880101,,50.970024,+050.58.12,9.80026,+09.48.0,204,background,urban,urban,unknown,DE009A
DEHE036,DEHE036,Frankfurt-Höhenstraße,19920101,,50.123981,+050.7.26,8.70025,+08.42.0,122,traffic,urban,urban,unknown,DE009A
DEHE037,DEHE037,Wiesbaden-Ringkirche,19910801,,50.077191,+050.4.37,8.230316,+08.13.49,145,traffic,urban,urban,unknown,DE009A
DEHE039,DEHE039,Burg Herzberg (Grebenau),20100907,,50.770381,+050.46.13,9.459402,+09.27.33,491,background,rural,rural,unknown,DE009A
DEHE040,DEHE040,Darmstadt-Hügelstraße,19931101,,49.869457,+049.52.10,8.653745,+08.39.13,158,traffic,urban,urban,unknown,DE009A
DEHE041,DEHE041,Frankfurt-Friedb.Ldstr.,19930301,,50.124589,+050.7.28,8.691911,+08.41.30,119,traffic,urban,urban,unknown,DE009A
DEHE042,DEHE042,Linden/Leihgestern,19950405,,50.532965,+050.31.58,8.684397,+08.41.3,172,background,rural,rural,unknown,DE009A
DEHE043,DEHE043,Riedstadt,19960320,,49.825165,+049.49.30,8.516798,+08.31.0,87,background,rural,rural,near-city,DE009A
DEHE044,DEHE044,Limburg,19980610,,50.383217,+050.22.59,8.060998,+08.3.39,128,background,urban,urban,unknown,DE009A
DEHE045,DEHE045,Michelstadt,19990505,,49.672507,+049.40.21,9.001981,+09.0.7,209,background,urban,urban,unknown,DE009A
DEHE046,DEHE046,Bad Arolsen,19990511,,51.430897,+051.25.51,8.928171,+08.55.41,343,background,rural,rural,unknown,DE009A
DEHE049,DEHE049,Kassel-Fünffenster-Str.,19990618,,51.312076,+051.18.43,9.49112,+09.29.28,179,traffic,urban,urban,unknown,DE009A
DEHE050,DEHE050,Zierenberg,20130507,,51.360755,+051.21.38,9.271233,+09.16.16,489,background,rural,rural,unknown,DE009A
DEHE051,DEHE051,Wasserkuppe,20000705,,50.497711,+050.29.51,9.935862,+09.56.9,931,background,rural,rural,unknown,DE009A
DEHE052,DEHE052,Kleiner Feldberg,19920312,,50.221941,+050.13.18,8.446079,+08.26.45,811,background,rural,rural,unknown,DE009A
DEHE053,DEHE053,DHA80 Frankfurt-Griesheim,20020101,,50.095453,+050.5.43,8.603379,+08.36.12,98,background,urban,urban,unknown,DE009A
DEHE054,DEHE054,DHA80 Hanau-Mitte,20020101,,50.130412,+050.7.49,8.926329,+08.55.34,107,background,urban,urban,unknown,DE009A
DEHE056,DEHE056,DHA80 Frankfurt-Mitte (Technisches Rathaus),20030102,,50.110829,+050.6.38,8.683638,+08.41.1,103,background,urban,urban,unknown,DE009A
DEHE057,DEHE057,DHA80 Wetzlar-Hermanstein,20020101,,50.577931,+050.34.40,8.495097,+08.29.42,183,background,urban,urban,unknown,DE009A
DEHE058,DEHE058,Fulda-Mitte,20050912,,50.549297,+050.32.57,9.682162,+09.40.55,272,background,urban,urban,unknown,DE009A
DEHE059,DEHE059,Fulda-Petersberger Str.,20050914,,50.550028,+050.33.0,9.684854,+09.41.5,277,traffic,urban,urban,unknown,DE009A
DEHE060,DEHE060,Kellerwald,20051009,,51.154843,+051.9.17,9.031754,+09.1.54,483,background,rural,rural,regional,DE009A
DEHE061,DEHE061,Gießen-Westanlage,20051212,,50.584108,+050.35.2,8.668579,+08.40.6,162,traffic,urban,urban,unknown,DE009A
DEHE062,DEHE062,Marburg-Univers.Straße,20051220,,50.807018,+050.48.25,8.769396,+08.46.9,186,traffic,urban,urban,unknown,DE009A
DEHE063,DEHE063,Heppenheim-Lehrstraße,20051229,,49.643238,+049.38.35,8.642,+08.38.31,110,traffic,urban,urban,unknown,DE009A
DEHE065,DEHE065,Frankfurt-Süd (5228),20050101,,50.104361,+050.6.15,8.675586,+08.40.32,102,background,urban,urban,unknown,DE009A
DEHE066,DEHE066,Frankfurt (5230),20050101,,50.111977,+050.6.43,8.676108,+08.40.33,112,background,urban,urban,unknown,DE009A
DEHE067,DEHE067,Frankfurt (5428),20050101,,50.104232,+050.6.15,8.690895,+08.41.27,103,background,urban,urban,unknown,DE009A
DEHE068,DEHE068,Frankfurt (5430),20050101,,50.111264,+050.6.40,8.691577,+08.41.29,103,background,urban,urban,unknown,DE009A
DEHE069,DEHE069,Frankfurt (3228),20050101,,50.10421,+050.6.15,8.535515,+08.32.7,106,background,urban,urban,unknown,DE009A
DEHE070,DEHE070,Frankfurt (3226),20050101,,50.094554,+050.5.40,8.537803,+08.32.16,101,background,urban,urban,unknown,DE009A
DEHE071,DEHE071,Frankfurt (3426),20050101,,50.095385,+050.5.43,8.557377,+08.33.26,91,background,rural,rural,unknown,DE009A
DEHE072,DEHE072,Frankfurt (3428),20050101,,50.103515,+050.6.12,8.548621,+08.32.55,105,background,urban,urban,unknown,DE009A
DEHE073,DEHE073,Hanau (8632),20050101,,50.1228,+050.7.22,8.916733,+08.55.0,105,background,urban,urban,unknown,DE009A
DEHE074,DEHE074,Hanau (8634),20130101,,50.121775,+050.7.18,8.958608,+08.57.30,107,background,urban,urban,unknown,DE009A
DEHE075,DEHE075,Hanau (8832),20050101,,50.125254,+050.7.30,8.931149,+08.55.52,106,background,urban,urban,unknown,DE009A
DEHE076,DEHE076,Hanau (8834),20050101,,50.130132,+050.7.48,8.925155,+08.55.30,111,background,urban,urban,unknown,DE009A
DEHE077,DEHE077,Hanau (9230),20050101,,50.11409,+050.6.50,8.951635,+08.57.5,108,background,rural,rural,near-city,DE009A
DEHE078,DEHE078,Hanau (9232),20050101,,50.121106,+050.7.15,8.960623,+08.57.38,108,background,urban,urban,unknown,DE009A
DEHE079,DEHE079,Hanau (9430),20050101,,50.115291,+050.6.55,8.967284,+08.58.2,118,background,rural,rural,near-city,DE009A
DEHE080,DEHE080,Hanau (9432),20050101,,50.122448,+050.7.20,8.970566,+08.58.14,111,background,rural,rural,near-city,DE009A
DEHE081,DEHE081,Wetzlar (1820),20050101,,50.576425,+050.34.35,8.481714,+08.28.54,153,background,rural,rural,near-city,DE009A
DEHE082,DEHE082,Wetzlar (1822),20050101,,50.584154,+050.35.2,8.525717,+08.31.32,159,background,rural,rural,near-city,DE009A
DEHE083,DEHE083,Wetzlar (2020),20050101,,50.569404,+050.34.9,8.506722,+08.30.24,153,background,urban,urban,unknown,DE009A
DEHE084,DEHE084,Wetzlar (2022),20050101,,50.576933,+050.34.36,8.503368,+08.30.12,169,background,rural,rural,near-city,DE009A
DEHE085,DEHE085,Kassel (2222),20050101,,51.307809,+051.18.28,9.51573,+09.30.56,138,background,urban,urban,unknown,DE009A
DEHE086,DEHE086,Kassel (2224),20050101,,51.3166,+051.18.59,9.513619,+09.30.49,136,background,urban,urban,unknown,DE009A
DEHE087,DEHE087,Kassel (2422),20050101,,51.307334,+051.18.26,9.529582,+09.31.46,140,background,urban,urban,unknown,DE009A
DEHE088,DEHE088,Kassel (2424),20050101,,51.314421,+051.18.51,9.526508,+09.31.35,137,background,rural,rural,near-city,DE009A
DEHE089,DEHE089,Wiesbaden (2622),20050101,,50.048225,+050.2.53,8.241492,+08.14.29,107,background,urban,urban,unknown,DE009A
DEHE090,DEHE090,Wiesbaden (2624),20050101,,50.054539,+050.3.16,8.244576,+08.14.40,133,background,urban,urban,unknown,DE009A
DEHE091,DEHE091,Wiesbaden (2822),20050101,,50.048374,+050.2.54,8.257548,+08.15.27,114,background,rural,rural,near-city,DE009A
DEHE092,DEHE092,Wiesbaden (2824),20050101,,50.057942,+050.3.28,8.259258,+08.15.33,115,background,urban,urban,unknown,DE009A
DEHE094,DEHE094,Reinheim,20070801,,49.827775,+049.49.39,8.832221,+08.49.55,161,traffic,urban,urban,unknown,DE009A
DEHE095,DEHE095,DHA80 Wetzlar-Köhlersgarten,20080103,,50.575364,+050.34.31,8.492018,+08.29.31,161,industrial,suburban,suburban,unknown,DE009A
DEHE096,DEHE096,Frankfurt Palmengarten,20070103,,50.12556,+050.7.32,8.656659,+08.39.23,105,background,urban,urban,unknown,DE009A
DEHE097,DEHE097,Fulda Zentral-Friedhof,20080101,,50.542563,+050.32.33,9.696033,+09.41.45,280,background,suburban,suburban,unknown,DE009A
DEHE098,DEHE098,Limburg Diezer Str. 49,20090101,,50.384466,+050.23.4,8.053849,+08.3.13,132,traffic,urban,urban,unknown,DE009A
DEHE099,DEHE099,Limburg Schiede 28-30,20090101,,50.38621,+050.23.10,8.059641,+08.3.34,122,traffic,urban,urban,unknown,DE009A
DEHE100,DEHE100,Limburg Schiede 37-41,20090101,,50.387586,+050.23.15,8.05913,+08.3.32,122,traffic,urban,urban,unknown,DE009A
DEHE101,DEHE101,Limburg Frankfurter Str. 52,20090101,,50.38312,+050.22.59,8.070442,+08.4.13,143,traffic,urban,urban,unknown,DE009A
DEHE102,DEHE102,Offenbach Untere Grenzstr. 61,20090101,,50.101443,+050.6.5,8.784665,+08.47.4,107,traffic,urban,urban,unknown,DE009A
DEHE103,DEHE103,Offenbach Bieberer Str. 86,20090101,,50.10239,+050.6.8,8.775947,+08.46.33,109,traffic,urban,urban,unknown,DE009A
DEHE104,DEHE104,Offenbach Mainstr. 133,20090101,,50.107078,+050.6.25,8.772779,+08.46.22,102,traffic,urban,urban,unknown,DE009A
DEHE105,DEHE105,Wetzlar Linsenbergstr.,20090101,,50.57508,+050.34.30,8.491714,+08.29.30,164,traffic,urban,urban,unknown,DE009A
DEHE106,DEHE106,Dep_Königstein,19840101,,50.19906,+050.11.56,8.43733,+08.26.14,520,background,rural,rural,unknown,DE009A
DEHE107,DEHE107,Dep_Witzenhausen,19840101,,51.291667,+051.17.30,9.774722,+09.46.28,600,background,rural,rural,unknown,DE009A
DEHE108,DEHE108,Dep_Fürth,19870101,,49.643889,+049.38.38,8.843889,+08.50.38,450,background,rural,rural,unknown,DE009A
DEHE109,DEHE109,Dep_Krofdorf,19840101,,50.669722,+050.40.10,8.623611,+08.37.24,320,background,rural,rural,unknown,DE009A
DEHE110,DEHE110,Dep_Ried,19990101,,49.69611,+049.41.45,8.54611,+08.32.45,90,background,rural,rural,unknown,DE009A
DEHE111,DEHE111,Rüsselsheim Rugby-Ring,20110101,,49.995556,+049.59.44,8.42439,+08.25.27,92,background,urban,urban,unknown,DE009A
DEHE112,DEHE112,Wiesbaden-Schiersteiner Str.,20120101,,50.072119,+050.4.19,8.228865,+08.13.43,140,traffic,urban,urban,unknown,DE009A
DEHE113,DEHE113,Lampertheim-Römerstraße,20110908,,49.593056,+049.35.35,8.469584,+08.28.10,97,traffic,rural,rural,unknown,DE009A
DEHE114,DEHE114,Lampertheim-Andreasstraße,20110908,,49.60201,+049.36.7,8.46188,+08.27.42,97,traffic,rural,rural,unknown,DE009A
DEHE115,DEHE115,Breuberg-Hainstadt,20120102,,49.83324,+049.49.59,9.04218,+09.2.31,143,traffic,rural,rural,unknown,DE009A
DEHE116,DEHE116,Offenbach-Untere Grenzstraße,20131101,,50.101494,+050.6.5,8.784892,+08.47.5,108,traffic,urban,urban,unknown,DE009A
DEHE120,DEHE120,Dep_Biebergemünd,20050101,,50.153,+050.9.10,9.3958,+09.23.44,,background,rural,rural background,remote,DE009A
DEHE122,DEHE122,Dep_Zierenberg,20050101,,51.371,+051.22.15,9.2678,+09.16.4,,background,rural,rural background,remote,DE009A
DEHE123,DEHE123,Dep_Homberg,20050101,,50.929,+050.55.44,9.3414,+09.20.29,,background,rural,rural background,remote,DE009A
DEHE124,DEHE124,Dep_Kellerwald,20050101,,51.158,+051.9.28,9.0306,+09.1.50,,background,rural,rural background,remote,DE009A
DEHH008,DEHH008,Hamburg Sternschanze,19840301,,53.56414,+053.33.50,9.967882,+09.58.4,15,background,urban,urban,unknown,DE012A
DEHH015,DEHH015,Hamburg Veddel,19840701,,53.523262,+053.31.23,10.021227,+010.1.16,4,industrial,urban,urban,unknown,DE012A
DEHH016,DEHH016,Hamburg Billbrook,19850101,,53.52902,+053.31.44,10.081685,+010.4.54,5,industrial,urban,urban,unknown,DE012A
DEHH021,DEHH021,Hamburg Tatenberg,19850101,,53.487669,+053.29.15,10.083646,+010.5.1,2,background,suburban,suburban,unknown,DE012A
DEHH026,DEHH026,Hamburg Stresemannstraße,19911101,,53.560632,+053.33.38,9.957236,+09.57.26,20,traffic,urban,urban,unknown,DE012A
DEHH033,DEHH033,Hamburg Flughafen Nord,19940401,,53.638291,+053.38.17,9.998009,+09.59.52,13,background,urban,urban,unknown,DE012A
DEHH047,DEHH047,Hamburg Bramfeld,19980401,,53.63074,+053.37.50,10.110595,+010.6.38,31,background,suburban,suburban,unknown,DE012A
DEHH049,DEHH049,Hamburg Blankenese-Baursberg,19981221,,53.568124,+053.34.5,9.786234,+09.47.10,75,background,suburban,suburban,unknown,DE012A
DEHH050,DEHH050,Hamburg Neugraben,19980701,,53.480927,+053.28.51,9.857223,+09.51.26,3,background,suburban,suburban,unknown,DE012A
DEHH057,DEHH057,Hamburg Marckmannstr.,19951001,,53.534663,+053.32.4,10.048428,+010.2.54,42,background,suburban,suburban,unknown,DE012A
DEHH059,DEHH059,Hamburg Wilhelmsburg,20000428,,53.50793,+053.30.28,9.990569,+09.59.26,3,background,urban,urban,unknown,DE012A
DEHH064,DEHH064,Hamburg Kieler Straße,20010601,,53.564399,+053.33.51,9.94458,+09.56.40,16,traffic,urban,urban,unknown,DE012A
DEHH068,DEHH068,Hamburg Habichtstraße,20020101,,53.592301,+053.35.32,10.053859,+010.3.13,12,traffic,urban,urban,unknown,DE012A
DEHH070,DEHH070,Hamburg Max-Brauer-Allee II (Straße),20020301,,53.555668,+053.33.20,9.943012,+09.56.34,25,traffic,urban,urban,unknown,DE012A
DEHH072,DEHH072,Hamburg Finkenwerder West,20040301,,53.535958,+053.32.9,9.84408,+09.50.38,0,industrial,urban,urban,unknown,DE012A
DEHH073,DEHH073,Hamburg Finkenwerder Airbus,20040201,,53.532075,+053.31.55,9.832702,+09.49.57,5,industrial,rural,rural,unknown,DE012A
DEHH074,DEHH074,Hamburg Billstedt,20040616,,53.538531,+053.32.18,10.102823,+010.6.10,18,background,urban,urban,unknown,DE012A
DEHH079,DEHH079,Hamburg Altona Elbhang,20111208,,53.545269,+053.32.42,9.944815,+09.56.41,25,background,urban,urban,unknown,DE012A
DEMV003,DEMV003,Neubrandenburg,19920101,,53.559784,+053.33.35,13.26644,+013.15.59,15,traffic,urban,urban,unknown,DE018A
DEMV004,DEMV004,Gülzow,19920101,,53.817775,+053.49.3,12.064708,+012.3.52,17,background,rural,rural,unknown,DE018A
DEMV007,DEMV007,Rostock-Stuthof,19930101,,54.161555,+054.9.41,12.174105,+012.10.26,5,background,suburban,suburban,unknown,DE018A
DEMV012,DEMV012,Löcknitz,19940115,,53.520456,+053.31.13,14.257407,+014.15.26,17,background,rural,rural,unknown,DE018A
DEMV017,DEMV017,Göhlen,19980201,,53.302352,+053.18.8,11.362965,+011.21.46,25,background,rural,rural,unknown,DE018A
DEMV019,DEMV019,Güstrow,20040101,,53.78175,+053.46.54,12.175512,+012.10.31,17,background,urban,urban,unknown,DE018A
DEMV020,DEMV020,Rostock Am Strande,20060101,,54.092278,+054.5.32,12.141994,+012.8.31,1,traffic,urban,urban,unknown,DE018A
DEMV021,DEMV021,Rostock-Warnemünde,20060501,,54.17133,+054.10.16,12.080003,+012.4.48,2,background,urban,urban,unknown,DE018A
DEMV022,DEMV022,Rostock-Holbeinplatz,20080125,,54.09262,+054.5.33,12.099553,+012.5.58,9,traffic,urban,urban,unknown,DE018A
DEMV023,DEMV023,Schwerin-Obotritenring,20080405,,53.631805,+053.37.54,11.398332,+011.23.53,58,traffic,urban,urban,unknown,DE018A
DEMV024,DEMV024,Leizen,20100616,,53.396348,+053.23.46,12.463929,+012.27.50,116,background,rural,rural,unknown,DE018A
DEMV025,DEMV025,Stralsund-Knieperdamm,20111001,,54.31923,+054.19.9,13.08101,+013.4.51,8,traffic,urban,urban,unknown,DE018A
DEMV026,DEMV026,Garz,20130101,,54.323514,+054.19.24,13.342138,+013.20.31,17,background,rural,rural,unknown,DE018A
DEMV027,DEMV027,Wolgast-Oberwallstraße,20140101,,54.053175,+054.3.11,13.779314,+013.46.45,6,traffic,urban,urban,unknown,DE018A
DEMV028,DEMV028,Wismar,20140501,,53.900767,+053.54.2,11.4769,+011.28.36,5,background,urban,urban,unknown,DE018A
DEMV029,DEMV029,Dep_Sandhof,20140221,,53.675,+053.40.29,12.059,+012.3.32,,background,rural,rural background,remote,DE018A
DEMV030,DEMV030,Dep_TorgelowRothemuehl,20140221,,53.639,+053.38.20,13.942,+013.56.31,,background,rural,rural background,remote,DE018A
DENI011,DENI011,Braunschweig,19780101,,52.22694,+052.13.36,10.47364,+010.28.25,98,background,suburban,suburban,unknown,DE010A
DENI016,DENI016,Oker/Harlingerode,19800501,,51.90158,+051.54.5,10.48132,+010.28.52,208,background,suburban,suburban,unknown,DE010A
DENI020,DENI020,Wolfsburg,19880201,,52.44081,+052.26.26,10.81638,+010.48.58,66,background,suburban,suburban,unknown,DE010A
DENI028,DENI028,Eichsfeld,19861009,,51.50758,+051.30.27,10.23854,+010.14.18,185,background,suburban,suburban,unknown,DE010A
DENI029,DENI029,Ostfriesland,19820401,,53.36235,+053.21.44,7.20726,+07.12.26,1,background,suburban,suburban,unknown,DE010A
DENI031,DENI031,Jadebusen,19840601,,53.59617,+053.35.46,8.09059,+08.5.26,2,background,rural,rural,unknown,DE010A
DENI038,DENI038,Osnabrück,19881001,,52.25534,+052.15.19,8.05286,+08.3.10,95,background,urban,urban,unknown,DE010A
DENI041,DENI041,Weserbergland,19881001,,52.17017,+052.10.12,9.06255,+09.3.45,54,background,suburban,suburban,unknown,DE010A
DENI042,DENI042,Göttingen,19870910,,51.55107,+051.33.3,9.94976,+09.56.59,170,background,suburban,suburban,unknown,DE010A
DENI043,DENI043,Emsland,19881001,,52.49855,+052.29.54,7.31747,+07.19.2,30,background,suburban,suburban,unknown,DE010A
DENI048,DENI048,Hannover Verkehr,19890701,,52.3595,+052.21.34,9.71577,+09.42.56,66,traffic,urban,urban,unknown,DE010A
DENI051,DENI051,Wurmberg,19910606,,51.75816,+051.45.29,10.61248,+010.36.44,939,background,rural,rural,unknown,DE010A
DENI052,DENI052,Allertal,19910404,,52.82943,+052.49.45,9.62295,+09.37.22,38,background,suburban,suburban,unknown,DE010A
DENI053,DENI053,Südoldenburg,19910403,,52.99796,+052.59.52,7.94257,+07.56.33,17,industrial,suburban,suburban,unknown,DE010A
DENI054,DENI054,Hannover,19780101,,52.36292,+052.21.46,9.70612,+09.42.22,85,background,urban,urban,unknown,DE010A
DENI058,DENI058,Ostfries. Inseln,19960201,,53.7153,+053.42.55,7.21398,+07.12.50,5,background,rural,rural,unknown,DE010A
DENI059,DENI059,Elbmündung,19980320,,53.83017,+053.49.48,8.80122,+08.48.4,3,background,rural,rural,unknown,DE010A
DENI060,DENI060,Wendland,19980401,,52.95702,+052.57.25,11.16705,+011.10.1,16,background,rural,rural,unknown,DE010A
DENI062,DENI062,Lüneburger Heide,19990401,,53.24696,+053.14.49,10.4565,+010.27.23,47,background,suburban,suburban,unknown,DE010A
DENI063,DENI063,Altes Land,19990211,,53.52418,+053.31.27,9.68503,+09.41.6,3,background,rural,rural,unknown,DE010A
DENI067,DENI067,Osnabrück-Verkehr,20050701,,52.2703,+052.16.13,8.04147,+08.2.29,69,traffic,urban,urban,unknown,DE010A
DENI068,DENI068,Göttingen-Verkehr,20051201,,51.5302,+051.31.48,9.92833,+09.55.41,150,traffic,urban,urban,unknown,DE010A
DENI069,DENI069,Nordenham/Blexer Sande,20060101,,53.509182,+053.30.33,8.499933,+08.29.59,2,industrial,suburban,suburban,unknown,DE010A
DENI070,DENI070,Salzgitter-Drütte,20070816,,52.15369,+052.9.13,10.45591,+010.27.21,93,industrial,rural,rural,unknown,DE010A
DENI071,DENI071,Barbis-Verkehr,20070101,,51.61365,+051.36.49,10.42275,+010.25.21,273,traffic,suburban,suburban,unknown,DE010A
DENI075,DENI075,Braunschweig-Verkehr,20080130,,52.26673,+052.16.0,10.54055,+010.32.25,81,traffic,urban,urban,unknown,DE010A
DENI077,DENI077,Solling-Süd,20100101,,51.70884,+051.42.31,9.55462,+09.33.16,295,background,rural,rural,unknown,DE010A
DENI079,DENI079,Dep_Dörenberg,19821216,,52.180279,+052.10.49,8.036967,+08.2.13,290,background,rural,rural,unknown,DE010A
DENI080,DENI080,Dep_Trillenberg,19830502,,52.506859,+052.30.24,7.837277,+07.50.14,120,background,rural,rural,unknown,DE010A
DENI081,DENI081,Dep_Kreuzberg,19830502,,52.628439,+052.37.42,7.709996,+07.42.35,70,background,rural,rural,unknown,DE010A
DENI082,DENI082,Dep_Lingen-Baccum,19830725,,52.477898,+052.28.40,7.392347,+07.23.32,44,background,rural,rural,unknown,DE010A
DENI083,DENI083,Dep_Bad_Bentheim,19830107,,52.273583,+052.16.24,7.2,+07.12.0,37,background,rural,rural,unknown,DE010A
DENI084,DENI084,Dep_Neuenhaus-Itterbeck,19830502,,52.511356,+052.30.40,6.820837,+06.49.15,65,background,rural,rural,unknown,DE010A
DENI085,DENI085,Dep_Edewecht,19830517,,53.118217,+053.7.5,8.117716,+08.7.3,11,background,rural,rural,unknown,DE010A
DENI086,DENI086,Dep_Hude-Hasbruch,19830816,,53.071824,+053.4.18,8.479727,+08.28.47,20,background,rural,rural,unknown,DE010A
DENI087,DENI087,Dep_Ovelgönne-Colmar,19830816,,53.344434,+053.20.39,8.365308,+08.21.55,0,background,rural,rural,unknown,DE010A
DENI088,DENI088,Dep_Friedeburg,19830816,,53.434545,+053.26.4,7.81024,+07.48.36,6,background,rural,rural,unknown,DE010A
DENI089,DENI089,Dep_Emden-Knock,19830818,,53.337188,+053.20.13,7.027746,+07.1.39,3,background,rural,rural,unknown,DE010A
DENI090,DENI090,Dep_Bückeberge,19840704,,52.265908,+052.15.57,9.198002,+09.11.52,338,background,rural,rural,unknown,DE010A
DENI091,DENI091,Dep_Schwaförden,19840704,,52.73896,+052.44.20,8.878121,+08.52.41,50,background,rural,rural,unknown,DE010A
DENI092,DENI092,Dep_Brockel,19840704,,53.071715,+053.4.18,9.5435,+09.32.36,30,background,rural,rural,unknown,DE010A
DENI093,DENI093,Dep_Osterholz-Scharmbeck,19840704,,53.354976,+053.21.17,8.824717,+08.49.28,25,background,rural,rural,unknown,DE010A
DENI094,DENI094,Dep_Stade-Mulsum,19840712,,53.528187,+053.31.41,9.280358,+09.16.49,10,background,rural,rural,unknown,DE010A
DENI095,DENI095,Dep_Drangstedt,19840712,,53.623387,+053.37.24,8.701191,+08.42.4,12,background,rural,rural,unknown,DE010A
DENI096,DENI096,Dep_Stuvenwald,19840715,,53.384508,+053.23.4,9.837691,+09.50.15,105,background,rural,rural,unknown,DE010A
DENI097,DENI097,Dep_Scharnebeck,19840715,,53.299087,+053.17.56,10.508316,+010.30.29,9,background,rural,rural,unknown,DE010A
DENI098,DENI098,Dep_Siemen,19840715,,53.009983,+053.0.35,11.177671,+011.10.39,15,background,rural,rural,unknown,DE010A
DENI099,DENI099,Dep_Knesebeck,19840715,,52.681036,+052.40.51,10.72181,+010.43.18,75,background,rural,rural,unknown,DE010A
DENI100,DENI100,Dep_Unterlüß,19840716,,52.82825,+052.49.41,10.307802,+010.18.28,112,background,rural,rural,unknown,DE010A
DENI101,DENI101,Dep_Berkhof,19840716,,52.607951,+052.36.28,9.774955,+09.46.29,38,background,rural,rural,unknown,DE010A
DENI102,DENI102,Dep_Norderney,19840903,,53.70642,+053.42.23,7.226028,+07.13.33,3,background,rural,rural,unknown,DE010A
DENI103,DENI103,Dep_Holzminden-Schießhaus,19841022,,51.82159,+051.49.17,9.581073,+09.34.51,415,background,rural,rural,unknown,DE010A
DENI104,DENI104,Dep_Hann.-Münden-Hemeln,19841022,,51.485558,+051.29.8,9.644263,+09.38.39,370,background,rural,rural,unknown,DE010A
DENI105,DENI105,Dep_Northeim-Westerhof,19841022,,51.740485,+051.44.25,10.097775,+010.5.51,220,background,rural,rural,unknown,DE010A
DENI106,DENI106,Dep_Riefensbeek,19841022,,51.771548,+051.46.17,10.447151,+010.26.49,760,background,rural,rural,unknown,DE010A
DENI107,DENI107,Dep_Seesen-Hohestein,19841023,,51.911642,+051.54.41,10.240008,+010.14.24,530,background,rural,rural,unknown,DE010A
DENI108,DENI108,Dep_Diekholzen-Petze,19841023,,52.079788,+052.4.47,9.918056,+09.55.5,175,background,rural,rural,unknown,DE010A
DENI109,DENI109,Dep_Königslutter,19850130,,52.227535,+052.13.39,10.787045,+010.47.13,270,background,rural,rural,unknown,DE010A
DENI110,DENI110,Dep_Buer-Ostenwalde,19840727,,52.250873,+052.15.3,8.346898,+08.20.48,200,background,rural,rural,unknown,DE010A
DENI111,DENI111,Dep_Goldenstedt,19901001,,52.738419,+052.44.18,8.474818,+08.28.29,30,background,rural,rural,unknown,DE010A
DENI112,DENI112,Dep_Börßum,19860626,,52.045196,+052.2.42,10.585186,+010.35.6,86,background,rural,rural,unknown,DE010A
DENI113,DENI113,Dep_Drütte,19960930,,52.161557,+052.9.41,10.440733,+010.26.26,94,background,urban,urban,unknown,DE010A
DENI114,DENI114,Dep_Ehmen,19960930,,52.379925,+052.22.47,10.676771,+010.40.36,89,background,urban,urban,unknown,DE010A
DENI115,DENI115,Dep_Hornburg,19990325,,52.019878,+052.1.11,10.629147,+010.37.44,121,background,rural,rural,unknown,DE010A
DENI116,DENI116,Dep_Achim-Uesen,19990701,,53.024413,+053.1.27,9.072853,+09.4.22,22,background,rural,rural,unknown,DE010A
DENI117,DENI117,Dep_Bühren,19951201,,52.629854,+052.37.47,9.146626,+09.8.47,25,background,urban,urban,unknown,DE010A
DENI118,DENI118,Dep_Soltau-Tetendorf,19960109,,52.972076,+052.58.19,9.835047,+09.50.6,64,background,urban,urban,unknown,DE010A
DENI119,DENI119,Dep_Lüder,19951229,,52.793022,+052.47.34,10.649449,+010.38.58,71,background,rural,rural,unknown,DE010A
DENI120,DENI120,Dep_Gröhnheimer_Feld,19971218,,52.885176,+052.53.6,7.869897,+07.52.11,36,background,rural,rural,unknown,DE010A
DENI121,DENI121,Dep_Breddewarden,19951122,,53.578643,+053.34.43,8.047772,+08.2.51,1,background,urban,urban,unknown,DE010A
DENI122,DENI122,Dep_Teufelsmoor,19921215,,53.231927,+053.13.54,8.864154,+08.51.50,1,background,rural,rural,unknown,DE010A
DENI123,DENI123,Dep_Vinnhorst,19960322,,52.421239,+052.25.16,9.689799,+09.41.23,53,background,urban,urban,unknown,DE010A
DENI124,DENI124,Dep_Markhausen,19970505,,52.948065,+052.56.53,7.86826,+07.52.5,20,industrial,rural,rural,unknown,DE010A
DENI125,DENI125,Dep_Dinklage,19990324,,52.680541,+052.40.49,8.111769,+08.6.42,26,industrial,rural,rural,unknown,DE010A
DENI126,DENI126,Dep_Nordenham,19960102,,53.524523,+053.31.28,8.498901,+08.29.56,2,background,urban,urban,unknown,DE010A
DENI127,DENI127,Dep_Kirchdorf,19990729,,52.590192,+052.35.24,8.827965,+08.49.40,52,background,rural,rural,unknown,DE010A
DENI128,DENI128,Dep_Stütensen,19951229,,53.00266,+053.0.9,10.797695,+010.47.51,74,background,rural,rural,unknown,DE010A
DENI129,DENI129,Dep_Schladen,19941230,,52.027809,+052.1.40,10.541469,+010.32.29,96,background,urban,urban,unknown,DE010A
DENI130,DENI130,Dep_Baltrum,19960103,,53.727057,+053.43.37,7.393307,+07.23.35,6,background,rural,rural,unknown,DE010A
DENI131,DENI131,Dep_Handeloh,19960109,,53.238146,+053.14.17,9.822696,+09.49.21,54,background,rural,rural,unknown,DE010A
DENI132,DENI132,Dep_Oldershausen,19970103,,51.788996,+051.47.20,10.100402,+010.6.1,180,background,rural,rural,unknown,DE010A
DENI133,DENI133,Dep_Riddagshausen,19960930,,52.270742,+052.16.14,10.562809,+010.33.46,73,background,urban,urban,unknown,DE010A
DENI134,DENI134,Dep_Rodewald,19990729,,52.629625,+052.37.46,9.52487,+09.31.29,29,background,rural,rural,unknown,DE010A
DENI135,DENI135,Dep_Gorleben,19941229,,53.050497,+053.3.1,11.342323,+011.20.32,16,background,urban,urban,unknown,DE010A
DENI136,DENI136,Dep_Glissen,19951201,,52.645321,+052.38.43,9.080578,+09.4.50,64,background,rural,rural,unknown,DE010A
DENI137,DENI137,Dep_Bockheber,19960109,,53.103492,+053.6.12,9.867156,+09.52.1,87,background,rural,rural,unknown,DE010A
DENI138,DENI138,Dep_Reinhausen,19960617,,51.466386,+051.27.58,9.991884,+09.59.30,195,background,rural,rural,unknown,DE010A
DENI139,DENI139,Dep_Hohenzethen,19981230,,53.046466,+053.2.47,10.820486,+010.49.13,77,background,rural,rural,unknown,DE010A
DENI140,DENI140,Dep_Jühnde,20020530,,51.452887,+051.27.10,9.794728,+09.47.41,310,background,rural,rural,unknown,DE010A
DENI141,DENI141,Dep_Stapelermoor,20020529,,53.3451,+053.20.42,7.847793,+07.50.52,13,background,rural,rural,unknown,DE010A
DENI142,DENI142,Dep_Wingst,20020516,,53.747552,+053.44.51,9.062286,+09.3.44,15,background,rural,rural,unknown,DE010A
DENI143,DENI143,Oldenburg Heiligengeistwall,20120103,,53.142836,+053.8.34,8.212084,+08.12.43,8,traffic,urban,urban,unknown,DE010A
DENI149,DENI149,Hannover Bornumer Straße,20111229,,52.360803,+052.21.38,9.712341,+09.42.44,67,traffic,urban,urban,unknown,DE010A
DENI150,DENI150,Hannover Friedrich-Ebert-Straße,20111229,,52.347585,+052.20.51,9.718975,+09.43.8,58,traffic,urban,urban,unknown,DE010A
DENI151,DENI151,Hannover Kurt-Schumacher-Straße,20111229,,52.376901,+052.22.36,9.738463,+09.44.18,60,traffic,urban,urban,unknown,DE010A
DENI152,DENI152,Hannover Marienstraße,20111229,,52.369965,+052.22.11,9.754405,+09.45.15,59,traffic,urban,urban,unknown,DE010A
DENI153,DENI153,Hannover Vahrenwalder Straße,20111229,,52.392658,+052.23.33,9.734758,+09.44.5,58,traffic,urban,urban,unknown,DE010A
DENI154,DENI154,Sieden,20091101,,52.66786,+052.40.4,8.93213,+08.55.55,53,background,rural,rural,unknown,DE010A
DENI155,DENI155,Gristede,20091101,,53.21238,+053.12.44,8.05779,+08.3.28,16,background,rural,rural,unknown,DE010A
DENI156,DENI156,Hesedorf,20100601,,53.47265,+053.28.21,9.19668,+09.11.48,4,background,rural,rural,unknown,DE010A
DENI157,DENI157,Wolfsburg Heßlinger Straße,20130101,,52.427886,+052.25.40,10.793683,+010.47.37,61,traffic,suburban,suburban,unknown,DE010A
DENI158,DENI158,Wolfsburg Schillerstraße,20130101,,52.423966,+052.25.26,10.785937,+010.47.9,64,traffic,urban,urban,unknown,DE010A
DENI159,DENI159,Wolfsburg Siemensstraße,20130101,,52.416442,+052.24.59,10.787837,+010.47.16,73,traffic,urban,urban,unknown,DE010A
DENI160,DENI160,Braunschweig Hildesheimer Straße,20130101,,52.270462,+052.16.13,10.499984,+010.29.59,75,traffic,urban,urban,unknown,DE010A
DENI161,DENI161,Dep_Luess,20050101,,52.839,+052.50.20,10.266,+010.15.57,,background,rural,rural background,remote,DE010A
DENI162,DENI162,Dep_LangeBramkeSued,20050101,,51.856,+051.51.21,10.413,+010.24.46,,background,rural,rural background,remote,DE010A
DENI163,DENI163,Dep_LangeBramkeKamm,20050101,,51.86,+051.51.35,10.418,+010.25.4,,background,rural,rural background,remote,DE010A
DENI165,DENI165,Dep_SollingFichte,20050101,,51.765,+051.45.54,9.5797,+09.34.46,,background,rural,rural background,remote,DE010A
DENI166,DENI166,Dep_GoettingerWald,20050101,,51.528,+051.31.40,10.0417,+010.2.30,,background,rural,rural background,remote,DE010A
DENI167,DENI167,Dep_Augustendorf,20050101,,52.908,+052.54.28,7.8592,+07.51.33,,background,rural,rural background,remote,DE010A
DENI168,DENI168,Dep_Ehrhorn,20050101,,53.178,+053.10.40,9.9025,+09.54.8,,background,rural,rural background,remote,DE010A
DENW002,DENW002,Datteln-Hagem,19861201,,51.641383,+051.38.28,7.331405,+07.19.53,80,background,suburban,suburban,unknown,DE004A
DENW006,DENW006,Lünen-Niederaden,19810102,,51.592206,+051.35.31,7.569838,+07.34.11,58,background,suburban,suburban,unknown,DE004A
DENW008,DENW008,Dortmund-Eving,19881101,,51.536911,+051.32.12,7.457463,+07.27.26,75,background,urban,urban,unknown,DE004A
DENW010,DENW010,Unna-Königsborn,19861101,,51.547495,+051.32.50,7.693835,+07.41.37,72,background,suburban,suburban,unknown,DE004A
DENW012,DENW012,Witten-Annen,19801201,,51.444267,+051.26.39,7.358404,+07.21.30,105,traffic,suburban,suburban,unknown,DE004A
DENW015,DENW015,Marl-Sickingmühle,19810101,,51.69896,+051.41.56,7.122713,+07.7.21,42,background,suburban,suburban,unknown,DE004A
DENW021,DENW021,Bottrop-Welheim,19810801,,51.525963,+051.31.33,6.976908,+06.58.36,40,industrial,urban,urban,unknown,DE004A
DENW022,DENW022,Gelsenkirchen-Bismarck,19810801,,51.533646,+051.32.1,7.101786,+07.6.6,40,background,suburban,suburban,unknown,DE004A
DENW024,DENW024,Essen-Vogelheim,19851101,,51.496527,+051.29.47,6.981045,+06.58.51,47,background,urban,urban,unknown,DE004A
DENW029,DENW029,Hattingen-Blankenstein,19861101,,51.403005,+051.24.10,7.208572,+07.12.30,93,background,suburban,suburban,unknown,DE004A
DENW030,DENW030,Wesel-Feldmark,19861201,,51.672809,+051.40.22,6.629576,+06.37.46,25,background,suburban,suburban,unknown,DE004A
DENW034,DENW034,Duisburg-Walsum,19810102,,51.524022,+051.31.26,6.748402,+06.44.54,28,industrial,urban,urban,unknown,DE004A
DENW038,DENW038,Mülheim-Styrum,19790501,,51.45346,+051.27.12,6.865107,+06.51.54,37,background,urban,urban,unknown,DE004A
DENW040,DENW040,Duisburg-Buchholz,19790501,,51.385255,+051.23.6,6.763001,+06.45.46,30,background,suburban,suburban,unknown,DE004A
DENW042,DENW042,Krefeld-Linn,19830901,,51.337669,+051.20.15,6.640242,+06.38.24,32,background,urban,urban,unknown,DE004A
DENW043,DENW043,Essen-Ost Steeler Straße,19881201,,51.451177,+051.27.4,7.030603,+07.1.50,100,traffic,urban,urban,unknown,DE004A
DENW048,DENW048,Düsseldorf-Reisholz,19830901,,51.188824,+051.11.19,6.859222,+06.51.33,40,background,suburban,suburban,unknown,DE004A
DENW053,DENW053,Köln-Chorweiler,19810101,,51.019345,+051.1.9,6.884636,+06.53.4,45,background,urban,urban,unknown,DE004A
DENW058,DENW058,Hürth,19890101,,50.876121,+050.52.34,6.873789,+06.52.25,90,industrial,suburban,suburban,unknown,DE004A
DENW059,DENW059,Köln-Rodenkirchen,19801201,,50.889814,+050.53.23,6.985164,+06.59.6,45,background,suburban,suburban,unknown,DE004A
DENW062,DENW062,Bonn-Auerberg,19861201,,50.75364,+050.45.13,7.082676,+07.4.57,57,background,suburban,suburban,unknown,DE004A
DENW064,DENW064,Simmerath (Eifel),19830901,,50.653236,+050.39.11,6.281069,+06.16.51,572,background,rural,rural,regional,DE004A
DENW065,DENW065,Netphen (Rothaargebirge),19851201,,50.930328,+050.55.49,8.191932,+08.11.30,635,background,rural,rural,regional,DE004A
DENW066,DENW066,Nettetal-Kaldenkirchen,19871201,,51.326943,+051.19.36,6.195868,+06.11.45,49,background,rural,rural,near-city,DE004A
DENW067,DENW067,Bielefeld-Ost,19890301,,52.023169,+052.1.23,8.548389,+08.32.54,102,background,urban,urban,unknown,DE004A
DENW068,DENW068,Soest-Ost,19890301,,51.570662,+051.34.14,8.148061,+08.8.53,110,background,rural,rural,near-city,DE004A
DENW071,DENW071,Düsseldorf-Lörick,19830901,,51.249211,+051.14.57,6.732383,+06.43.56,32,background,urban,urban,unknown,DE004A
DENW074,DENW074,Niederzier,19910801,,50.883475,+050.53.0,6.469363,+06.28.9,105,industrial,rural,rural,unknown,DE004A
DENW078,DENW078,Ratingen-Tiefenbroich,19980423,,51.303919,+051.18.14,6.819967,+06.49.11,41,background,suburban,suburban,unknown,DE004A
DENW079,DENW079,Leverkusen-Manfort,19980423,,51.028879,+051.1.43,7.005063,+07.0.18,50,background,suburban,suburban,unknown,DE004A
DENW080,DENW080,Solingen-Wald,19980701,,51.183773,+051.11.1,7.052634,+07.3.9,207,background,suburban,suburban,unknown,DE004A
DENW081,DENW081,Borken-Gemen,19980911,,51.862,+051.51.43,6.874554,+06.52.28,45,background,rural,rural,near-city,DE004A
DENW082,DENW082,Düsseldorf Corneliusstraße,19970313,,51.21311,+051.12.47,6.782565,+06.46.57,37,traffic,urban,urban,unknown,DE004A
DENW094,DENW094,Aachen-Burtscheid,19990705,,50.754704,+050.45.16,6.093923,+06.5.38,205,background,urban,urban,unknown,DE004A
DENW095,DENW095,Münster-Geist,19991006,,51.936547,+051.56.11,7.611581,+07.36.41,63,background,urban,urban,unknown,DE004A
DENW096,DENW096,Mönchengladbach-Rheydt,19991109,,51.154614,+051.9.16,6.42571,+06.25.32,78,background,suburban,suburban,unknown,DE004A
DENW100,DENW100,Mönchengladbach Düsseldorfer Straße,20010625,,51.169967,+051.10.11,6.458842,+06.27.31,51,traffic,urban,urban,unknown,DE004A
DENW101,DENW101,Dortmund Steinstraße,20011201,,51.519639,+051.31.10,7.464347,+07.27.51,74,traffic,urban,urban,unknown,DE004A
DENW112,DENW112,Duisburg Kardinal-Galen-Straße,20020610,,51.437708,+051.26.15,6.771801,+06.46.18,34,traffic,urban,urban,unknown,DE004A
DENW114,DENW114,Wuppertal-Langerfeld,20021203,,51.277647,+051.16.39,7.231895,+07.13.54,186,background,urban,urban,unknown,DE004A
DENW115,DENW115,Krefeld-Stahldorf,20020401,,51.307612,+051.18.27,6.557419,+06.33.26,40,industrial,urban,urban,unknown,DE004A
DENW116,DENW116,Krefeld (Hafen),20021029,,51.342561,+051.20.33,6.670195,+06.40.12,30,industrial,suburban,suburban,unknown,DE004A
DENW117,DENW117,Bochum-Stahlhausen,20010103,,51.482542,+051.28.57,7.186095,+07.11.9,57,industrial,urban,urban,unknown,DE004A
DENW118,DENW118,Bottrop (Kokerei 1),20010101,,51.519007,+051.31.8,6.985347,+06.59.7,40,industrial,urban,urban,unknown,DE004A
DENW119,DENW119,Bottrop (Kokerei 2),20010101,,51.521084,+051.31.15,6.970218,+06.58.12,40,industrial,urban,urban,unknown,DE004A
DENW120,DENW120,Bottrop (Kokerei 3),20010101,,51.523736,+051.31.25,6.975549,+06.58.31,40,industrial,urban,urban,unknown,DE004A
DENW121,DENW121,Bottrop (Kokerei 4),20010101,,51.522655,+051.31.21,6.983379,+06.59.0,40,industrial,urban,urban,unknown,DE004A
DENW127,DENW127,Castrop-Rauxel (6),20020401,,51.575092,+051.34.30,7.295359,+07.17.43,58,industrial,suburban,suburban,unknown,DE004A
DENW131,DENW131,Duisburg Kiebitzmühlenstraße,20020920,,51.506217,+051.30.22,6.746857,+06.44.48,26,industrial,urban,urban,unknown,DE004A
DENW133,DENW133,Hagen Graf-von-Galen-Ring,20020829,,51.362829,+051.21.46,7.46353,+07.27.48,106,traffic,urban,urban,unknown,DE004A
DENW134,DENW134,Essen Gladbecker Straße,20031029,,51.477931,+051.28.40,7.005278,+07.0.19,55,traffic,urban,urban,unknown,DE004A
DENW136,DENW136,Dortmund Brackeler Straße,20031115,,51.523567,+051.31.24,7.483597,+07.29.0,76,traffic,urban,urban,unknown,DE004A
DENW137,DENW137,Hagen Wehringhauser Straße,20031215,,51.354904,+051.21.17,7.453887,+07.27.13,109,traffic,urban,urban,unknown,DE004A
DENW147,DENW147,Köln-Godorf,20050518,,50.849028,+050.50.56,6.975626,+06.58.32,54,industrial,urban,urban,unknown,DE004A
DENW148,DENW148,Köln Justinianstraße,20050506,,50.938542,+050.56.18,6.978026,+06.58.40,50,traffic,urban,urban,unknown,DE004A
DENW151,DENW151,Köln Neumarkt,20050506,,50.935545,+050.56.7,6.947953,+06.56.52,56,traffic,urban,urban,unknown,DE004A
DENW157,DENW157,Paderborn Bahnhofstraße,20050429,,51.714573,+051.42.52,8.744098,+08.44.38,121,traffic,urban,urban,unknown,DE004A
DENW158,DENW158,Paderborn Friedrichstraße 29,20050429,,51.718696,+051.43.7,8.747085,+08.44.49,118,traffic,urban,urban,unknown,DE004A
DENW161,DENW161,Essen Alfredstraße 9/11,20030728,,51.440205,+051.26.24,7.004406,+07.0.15,114,traffic,urban,urban,unknown,DE004A
DENW162,DENW162,Essen Brückstraße,20030728,,51.38818,+051.23.17,7.00111,+07.0.3,53,traffic,urban,urban,unknown,DE004A
DENW165,DENW165,Mönchengladbach Aachener Straße 426/428,20031110,,51.182463,+051.10.56,6.409975,+06.24.35,78,traffic,urban,urban,unknown,DE004A
DENW166,DENW166,Remscheid Freiheitstraße,20031110,,51.178034,+051.10.40,7.18192,+07.10.54,315,traffic,urban,urban,unknown,DE004A
DENW169,DENW169,Essen In der Baumschule,20031126,,51.478487,+051.28.42,7.005478,+07.0.19,50,background,urban,urban,unknown,DE004A
DENW171,DENW171,Essen Hombrucher Straße 21/23,20031126,,51.457314,+051.27.26,7.047134,+07.2.49,104,traffic,urban,urban,unknown,DE004A
DENW172,DENW172,Neuss Friedrichstraße 29,20031203,,51.193975,+051.11.38,6.692515,+06.41.33,40,traffic,urban,urban,unknown,DE004A
DENW175,DENW175,Bonn Reuterstraße 24,20050608,,50.722581,+050.43.21,7.097058,+07.5.49,65,traffic,urban,urban,unknown,DE004A
DENW176,DENW176,Bonn Bornheimer Straße 35a,20050608,,50.736963,+050.44.13,7.087619,+07.5.15,62,traffic,urban,urban,unknown,DE004A
DENW178,DENW178,Aachen Adalbertsteinweg,20050809,,50.774694,+050.46.28,6.097338,+06.5.50,170,traffic,urban,urban,unknown,DE004A
DENW179,DENW179,Schwerte,20051103,,51.448762,+051.26.55,7.582295,+07.34.56,157,background,urban,urban,unknown,DE004A
DENW180,DENW180,Grevenbroich-Gustorf,20051129,,51.063766,+051.3.49,6.559477,+06.33.34,58,industrial,suburban,suburban,unknown,DE004A
DENW181,DENW181,Warstein,20051222,,51.443012,+051.26.34,8.360714,+08.21.38,315,industrial,urban,urban,unknown,DE004A
DENW184,DENW184,Dortmund B1 Westfalendamm,20051103,,51.504083,+051.30.14,7.503074,+07.30.11,122,traffic,urban,urban,unknown,DE004A
DENW185,DENW185,Dortmund B1 Rheinlanddamm,20051103,,51.500589,+051.30.2,7.480949,+07.28.51,124,traffic,urban,urban,unknown,DE004A
DENW186,DENW186,Bielefeld Stapenhorststraße 59,20060120,,52.026236,+052.1.34,8.521576,+08.31.17,127,traffic,urban,urban,unknown,DE004A
DENW187,DENW187,Mülheim Aktienstraße 152/154,20050627,,51.441164,+051.26.28,6.896149,+06.53.46,80,traffic,urban,urban,unknown,DE004A
DENW188,DENW188,Oberhausen Mülheimer Straße 117,20050627,,51.474971,+051.28.29,6.863657,+06.51.49,42,traffic,urban,urban,unknown,DE004A
DENW189,DENW189,Wuppertal Gathe,20050630,,51.260681,+051.15.38,7.147401,+07.8.50,160,traffic,urban,urban,unknown,DE004A
DENW195,DENW195,Hamm Münsterstraße,20060908,,51.689266,+051.41.21,7.809711,+07.48.34,61,traffic,urban,urban,unknown,DE004A
DENW201,DENW201,Bottrop Peterstraße,20110103,,51.519262,+051.31.9,6.924268,+06.55.27,59,traffic,urban,urban,unknown,DE004A
DENW203,DENW203,Herne Recklinghauser Straße,20110106,,51.543141,+051.32.35,7.150186,+07.9.0,40,traffic,urban,urban,unknown,DE004A
DENW207,DENW207,Aachen Wilhelmstraße,20070110,,50.773131,+050.46.23,6.095775,+06.5.44,163,traffic,urban,urban,unknown,DE004A
DENW208,DENW208,Gelsenkirchen Kurt-Schumacher-Straße,20110110,,51.527883,+051.31.40,7.084597,+07.5.4,40,traffic,urban,urban,unknown,DE004A
DENW209,DENW209,Oberhausen Mülheimer Straße 116,20061219,,51.475005,+051.28.30,6.86396,+06.51.50,42,traffic,urban,urban,unknown,DE004A
DENW210,DENW210,Erwitte Soester Straße 9A,20061220,,51.611676,+051.36.42,8.334714,+08.20.4,103,traffic,urban,urban,unknown,DE004A
DENW211,DENW211,Köln Clevischer Ring 3,20060506,,50.962857,+050.57.46,7.00459,+07.0.16,48,traffic,urban,urban,unknown,DE004A
DENW212,DENW212,Köln Turiner Straße,20070329,,50.947367,+050.56.50,6.957701,+06.57.27,49,traffic,urban,urban,unknown,DE004A
DENW213,DENW213,Overath Hauptstraße 55,20031203,,50.932806,+050.55.58,7.285858,+07.17.9,92,traffic,urban,urban,unknown,DE004A
DENW215,DENW215,Essen-Frohnhausen,20040728,,51.443197,+051.26.35,6.975815,+06.58.32,102,traffic,urban,urban,unknown,DE004A
DENW216,DENW216,Düsseldorf-Bilk,20031110,,51.202464,+051.12.8,6.776388,+06.46.34,42,traffic,urban,urban,unknown,DE004A
DENW219,DENW219,Köln-Weiden,20070615,,50.938052,+050.56.16,6.835109,+06.50.6,65,traffic,urban,urban,unknown,DE004A
DENW222,DENW222,Halle (Westfalen) Lange Straße,20071220,,52.061461,+052.3.41,8.360942,+08.21.39,130,traffic,urban,urban,unknown,DE004A
DENW228,DENW228,Bielefeld Stapenhorststraße 42,20071121,,52.02596,+052.1.33,8.522293,+08.31.20,126,traffic,urban,urban,unknown,DE004A
DENW230,DENW230,Bönen Bönener Straße,20071123,,51.61074,+051.36.38,7.750195,+07.45.0,78,traffic,urban,urban,unknown,DE004A
DENW232,DENW232,Langenfeld Schneiderstraße,20071119,,51.120018,+051.7.12,6.96917,+06.58.9,57,traffic,urban,urban,unknown,DE004A
DENW239,DENW239,Witten-Zentrum,20071121,,51.438218,+051.26.17,7.337297,+07.20.14,105,traffic,urban,urban,unknown,DE004A
DENW245,DENW245,Stolberg Heinrich-Böll-Platz,20071207,,50.764801,+050.45.53,6.232622,+06.13.57,195,industrial,urban,urban,unknown,DE004A
DENW246,DENW246,Lünen Viktoriastraße,20080104,,51.608416,+051.36.30,7.522953,+07.31.22,54,industrial,urban,urban,unknown,DE004A
DENW247,DENW247,Essen-Schuir (LANUV),20080501,,51.406968,+051.24.25,6.965643,+06.57.56,153,background,suburban,suburban,unknown,DE004A
DENW248,DENW248,Recklinghausen Königswall 6,20080109,,51.612641,+051.36.45,7.194987,+07.11.41,75,traffic,urban,urban,unknown,DE004A
DENW249,DENW249,Köln-Junkersdorf Statthalterhofweg 70,20080107,,50.931615,+050.55.53,6.857614,+06.51.27,66,traffic,urban,urban,unknown,DE004A
DENW250,DENW250,Köln-Junkersdorf Jungbluthbrücke,20080107,,50.93095,+050.55.51,6.85028,+06.51.1,63,traffic,urban,urban,unknown,DE004A
DENW251,DENW251,Krefeld Kölner Straße 209,20080109,,51.317847,+051.19.4,6.574775,+06.34.29,42,traffic,urban,urban,unknown,DE004A
DENW252,DENW252,Krefeld Oranierring,20080109,,51.340374,+051.20.25,6.553999,+06.33.14,41,traffic,urban,urban,unknown,DE004A
DENW253,DENW253,Duisburg Friedrich-Ebert-Straße 30,20080109,,51.411535,+051.24.41,6.711915,+06.42.42,28,traffic,urban,urban,unknown,DE004A
DENW254,DENW254,Duisburg Bergstraße 48,20070530,,51.467926,+051.28.4,6.752535,+06.45.9,28,industrial,urban,urban,unknown,DE004A
DENW255,DENW255,Hagen Enneper Straße,20080626,,51.339466,+051.20.22,7.395867,+07.23.45,140,traffic,urban,urban,unknown,DE004A
DENW259,DENW259,Mönchengladbach Friedrich-Ebert-Straße,20090109,,51.169437,+051.10.9,6.439975,+06.26.23,69,traffic,urban,urban,unknown,DE004A
DENW260,DENW260,Münster Weseler Straße,20090112,,51.953267,+051.57.11,7.619387,+07.37.9,63,traffic,urban,urban,unknown,DE004A
DENW262,DENW262,Dinslaken Hans-Böckler-Straße 9,20081216,,51.562254,+051.33.44,6.741891,+06.44.30,31,traffic,urban,urban,unknown,DE004A
DENW266,DENW266,Düren Euskirchener Straße,20081216,,50.80413,+050.48.14,6.494618,+06.29.40,143,traffic,urban,urban,unknown,DE004A
DENW267,DENW267,Hürth Luxemburger Straße 344,20081216,,50.879855,+050.52.47,6.889934,+06.53.23,65,traffic,urban,urban,unknown,DE004A
DENW268,DENW268,Münster Steinfurter Straße 11,20081217,,51.968324,+051.58.5,7.613536,+07.36.48,65,traffic,urban,urban,unknown,DE004A
DENW269,DENW269,Münster Bült,20081217,,51.963395,+051.57.48,7.631346,+07.37.52,63,traffic,urban,urban,unknown,DE004A
DENW272,DENW272,Siegen Frankfurter Straße,20081217,,50.870851,+050.52.15,8.026075,+08.1.33,249,traffic,urban,urban,unknown,DE004A
DENW275,DENW275,Dinslaken Hünxer Straße,20081216,,51.563935,+051.33.50,6.743404,+06.44.36,30,traffic,urban,urban,unknown,DE004A
DENW276,DENW276,Essen Hafenstraße,20081229,,51.489565,+051.29.22,6.980607,+06.58.50,35,traffic,urban,urban,unknown,DE004A
DENW277,DENW277,Essen Krayer Straße 213,20081229,,51.465642,+051.27.56,7.080298,+07.4.49,77,traffic,urban,urban,unknown,DE004A
DENW280,DENW280,Gevelsberg Hagener Straße 12,20081229,,51.320467,+051.19.13,7.34408,+07.20.38,161,traffic,urban,urban,unknown,DE004A
DENW281,DENW281,Hagen Märkischer Ring 85,20040729,,51.360378,+051.21.37,7.477383,+07.28.38,120,traffic,urban,urban,unknown,DE004A
DENW287,DENW287,Eschweiler Indestraße,20091203,,50.820557,+050.49.14,6.264315,+06.15.51,140,traffic,urban,urban,unknown,DE004A
DENW288,DENW288,Köln-Weiden An der alten Post,20091211,,50.936695,+050.56.12,6.833488,+06.50.0,63,traffic,urban,urban,unknown,DE004A
DENW289,DENW289,Neuss Krefelder Straße,20091230,,51.202242,+051.12.8,6.685209,+06.41.6,42,traffic,rural,rural,unknown,DE004A
DENW290,DENW290,Neuss Batteriestraße,20091230,,51.201385,+051.12.4,6.693266,+06.41.35,38,traffic,urban,urban,unknown,DE004A
DENW291,DENW291,Mettmann Breite Straße 10,20091204,,51.249869,+051.14.59,6.978922,+06.58.44,123,traffic,urban,urban,unknown,DE004A
DENW292,DENW292,Schwerte Hörder Straße,20110107,,51.44654,+051.26.47,7.56363,+07.33.49,127,traffic,urban,urban,unknown,DE004A
DENW293,DENW293,Dinslaken Wilhelm-Lantermann-Straße 33,20101123,,51.564642,+051.33.52,6.740467,+06.44.25,32,traffic,urban,urban,unknown,DE004A
DENW294,DENW294,Emmerich-Elten Schmidtstraße 3,20101123,,51.8724,+051.52.20,6.16048,+06.9.37,20,traffic,urban,urban,unknown,DE004A
DENW296,DENW296,Recklinghausen Bochumer Straße,20110104,,51.577208,+051.34.37,7.213339,+07.12.48,54,traffic,urban,urban,unknown,DE004A
DENW297,DENW297,Köln-Meschenich Brühler Landstraße,20101125,,50.858997,+050.51.32,6.924825,+06.55.29,60,traffic,suburban,suburban,unknown,DE004A
DENW299,DENW299,Gladbeck Grabenstraße 42,20101203,,51.569886,+051.34.11,6.997653,+06.59.51,60,traffic,rural,rural,unknown,DE004A
DENW301,DENW301,Mülheim Hofackerstraße 46-48,20110117,,51.431472,+051.25.53,6.847664,+06.50.51,38,industrial,urban,urban,unknown,DE004A
DENW303,DENW303,Köln Dellbrücker Hauptstraße,20111213,,50.978208,+050.58.41,7.071003,+07.4.15,63,traffic,urban,urban,unknown,DE004A
DENW305,DENW305,Mülheim Kölner Straße (B1),20111219,,50.368083,+050.22.5,6.863392,+06.51.48,74,traffic,suburban,suburban,unknown,DE004A
DENW306,DENW306,Lünen Mühlenweg,20120117,,51.61395,+051.36.50,7.471006,+07.28.15,51,industrial,urban,urban,unknown,DE004A
DENW307,DENW307,Kamp-Lintfort Eyller-Berg-Straße,20120101,,51.481842,+051.28.54,6.527344,+06.31.38,25,industrial,suburban,suburban,unknown,DE004A
DENW322,DENW322,Bad Salzuflen Beetstraße,20120124,,52.0838,+052.5.1,8.756275,+08.45.22,97,traffic,urban,urban,unknown,DE004A
DENW323,DENW323,Bad Salzuflen Bahnhofstraße,20120124,,52.080964,+052.4.51,8.744697,+08.44.40,76,traffic,urban,urban,unknown,DE004A
DENW329,DENW329,Jackerath,20130103,,51.033834,+051.2.1,6.451483,+06.27.5,112,industrial,rural,rural,unknown,DE004A
DENW330,DENW330,Düsseldorf-Lohausen,20130115,,51.269503,+051.16.10,6.753747,+06.45.13,40,background,urban,urban,unknown,DE004A
DENW331,DENW331,Bochum Herner Straße 385,20130131,,51.512561,+051.30.45,7.211139,+07.12.40,70,traffic,urban,urban,unknown,DE004A
DENW332,DENW332,Köln Hauptstraße,20121219,,50.883711,+050.53.1,7.055722,+07.3.20,55,traffic,urban,urban,unknown,DE004A
DENW333,DENW333,Köln Heidestraße 176,20121219,,50.858858,+050.51.31,7.101197,+07.6.4,56,traffic,urban,urban,unknown,DE004A
DENW334,DENW334,Kamen Bahnhofstraße 21,20121129,,51.588658,+051.35.19,7.662739,+07.39.45,62,traffic,urban,urban,unknown,DE004A
DENW335,DENW335,Meerbusch Meerbuscher Straße,20121206,,51.267083,+051.16.1,6.641622,+06.38.29,40,traffic,urban,urban,unknown,DE004A
DENW336,DENW336,Köln Luxemburger Straße,20121219,,50.920406,+050.55.13,6.932681,+06.55.57,56,traffic,urban,urban,unknown,DE004A
DENW337,DENW337,Jüchen-Hochneukirch,20140106,,51.097638,+051.5.51,6.469463,+06.28.10,83,industrial,rural,rural,unknown,DE004A
DENW338,DENW338,Duisburg-Bruckhausen,20140101,,51.485492,+051.29.7,6.735431,+06.44.7,28,industrial,urban,urban,unknown,DE004A
DENW339,DENW339,Düsseldorf Volmerswerther Deich,20131219,,51.184426,+051.11.3,6.75952,+06.45.34,34,background,suburban,suburban,unknown,DE004A
DENW340,DENW340,Düsseldorf Ludenberger Straße,20140106,,51.240755,+051.14.26,6.83315,+06.49.59,117,traffic,urban,urban,unknown,DE004A
DENW341,DENW341,Erkelenz Eggerather Weg,20140106,,51.052883,+051.3.10,6.403289,+06.24.11,90,industrial,rural,rural,unknown,DE004A
DENW342,DENW342,Siegen Sandstraße 18,20140106,,50.875539,+050.52.31,8.02382,+08.1.25,243,traffic,urban,urban,unknown,DE004A
DENW343,DENW343,Düsseldorf (Flughafen 1),20120521,,51.524281,+051.31.27,7.060337,+07.3.37,40,background,urban,urban,unknown,DE004A
DERP001,DERP001,Ludwigshafen-Oppau,19780101,,49.515052,+049.30.54,8.402374,+08.24.8,91,background,urban,urban,unknown,DE011A
DERP003,DERP003,Ludwigshafen-Mundenheim,19780101,,49.455378,+049.27.19,8.425833,+08.25.32,98,industrial,urban,urban,unknown,DE011A
DERP007,DERP007,Mainz-Mombach,19780101,,50.017078,+050.1.1,8.216498,+08.12.59,120,background,urban,urban,unknown,DE011A
DERP009,DERP009,Mainz-Zitadelle,19780101,,49.994975,+049.59.41,8.273965,+08.16.26,110,background,urban,urban,unknown,DE011A
DERP010,DERP010,Mainz-Parcusstraße,19790101,,50.000973,+050.0.3,8.261277,+08.15.40,85,traffic,urban,urban,unknown,DE011A
DERP011,DERP011,Mainz-Rheinallee,19870219,,50.009954,+050.0.35,8.265563,+08.15.56,85,traffic,urban,urban,unknown,DE011A
DERP012,DERP012,Mainz-Große Langgasse,19920101,,49.998837,+049.59.55,8.268996,+08.16.8,85,traffic,urban,urban,unknown,DE011A
DERP013,DERP013,Westpfalz-Waldmohr,19840101,,49.423137,+049.25.23,7.293522,+07.17.36,455,background,rural,rural,unknown,DE011A
DERP014,DERP014,Hunsrück-Leisel,19840101,,49.741035,+049.44.27,7.193486,+07.11.36,650,background,rural,rural,unknown,DE011A
DERP015,DERP015,Westeifel Wascheid,19840101,,50.2665,+050.15.59,6.3781,+06.22.41,680,background,rural,rural,unknown,DE011A
DERP016,DERP016,Westerwald-Herdorf,19840101,,50.766751,+050.46.0,7.9735,+07.58.24,480,background,rural,rural,unknown,DE011A
DERP017,DERP017,Pfälzerwald-Hortenkopf,19860101,,49.270263,+049.16.12,7.826521,+07.49.35,606,background,rural,rural,unknown,DE011A
DERP019,DERP019,Kaiserslautern-Rathausplatz,19860101,,49.446,+049.26.45,7.7673,+07.46.2,232,background,urban,urban,unknown,DE011A
DERP020,DERP020,Trier-Ostallee,19860101,,49.754192,+049.45.15,6.646762,+06.38.48,140,traffic,urban,urban,unknown,DE011A
DERP021,DERP021,Neuwied-Hafenstraße,19880101,,50.424674,+050.25.28,7.481394,+07.28.53,65,background,urban,urban,unknown,DE011A
DERP022,DERP022,Bad Kreuznach-Bosenheimer Straße,19890101,,49.842136,+049.50.31,7.866208,+07.51.58,108,background,urban,urban,unknown,DE011A
DERP023,DERP023,Worms-Hagenstraße,19900101,,49.6287,+049.37.43,8.3649,+08.21.53,97,traffic,urban,urban,unknown,DE011A
DERP024,DERP024,Koblenz-Friedrich-Ebert-Ring,19920101,,50.3544,+050.21.15,7.596583,+07.35.47,68,traffic,urban,urban,unknown,DE011A
DERP025,DERP025,Wörth-Marktplatz,19900531,,49.052321,+049.3.8,8.253547,+08.15.12,104,background,urban,urban,unknown,DE011A
DERP026,DERP026,Frankenthal-Europaring,19910101,,49.5333,+049.31.59,8.3553,+08.21.19,99,traffic,urban,urban,unknown,DE011A
DERP028,DERP028,Westerwald-Neuhäusel,19940101,,50.4243,+050.25.27,7.7299,+07.43.47,546,background,rural,rural,unknown,DE011A
DERP040,DERP040,Trier-Universität,20000209,,49.74869,+049.44.55,6.674874,+06.40.29,256,background,urban,urban,unknown,DE011A
DERP041,DERP041,Ludwigshafen-Heinigstraße,20001101,,49.47869,+049.28.43,8.443654,+08.26.37,94,traffic,urban,urban,unknown,DE011A
DERP042,DERP042,Pirmasens Schäferstr.,20020325,,49.199942,+049.11.59,7.603053,+07.36.10,361,background,urban,urban,unknown,DE011A
DERP043,DERP043,Braubach,19991119,,50.275108,+050.16.30,7.652115,+07.39.7,85,industrial,rural,rural,unknown,DE011A
DERP044,DERP044,Krautscheid / Seifen,19790101,,50.699438,+050.41.57,7.375279,+07.22.31,180,industrial,rural,rural,unknown,DE011A
DERP045,DERP045,Koblenz-Hohenfelder Straße,20051214,,50.359605,+050.21.34,7.592515,+07.35.33,70,traffic,urban,urban,unknown,DE011A
DERP046,DERP046,Neuwied-Hermannstraße,20080124,,50.431398,+050.25.53,7.460812,+07.27.38,65,traffic,urban,urban,unknown,DE011A
DERP047,DERP047,Trier-Pfalzel,20070301,,49.783942,+049.47.2,6.690488,+06.41.25,131,industrial,suburban,suburban,unknown,DE011A
DERP052,DERP052,Mayen,20130101,,50.330233,+050.19.48,7.226235,+07.13.34,238,traffic,urban,urban,unknown,DE011A
DERP053,DERP053,Speyer-Nord,20131115,,49.351143,+049.21.4,8.423005,+08.25.22,103,background,suburban,suburban,unknown,DE011A
DERP054,DERP054,Dep_Hermeskeil,20050101,,49.698,+049.41.52,7.0272,+07.1.37,,background,rural,rural background,remote,DE011A
DERP055,DERP055,Dep_Adenau,20050101,,50.433,+050.25.58,7.0908,+07.5.26,,background,rural,rural background,remote,DE011A
DERP056,DERP056,Dep_Kirchheimbolanden,20050101,,49.634,+049.38.2,7.9186,+07.55.6,,background,rural,rural background,remote,DE011A
DERP057,DERP057,Dep_Neuhaeusel,20050101,,50.406,+050.24.21,7.7308,+07.43.50,,background,rural,rural background,remote,DE011A
DERP058,DERP058,Dep_Merzalben,20050101,,49.273,+049.16.22,7.8125,+07.48.45,,background,rural,rural background,remote,DE011A
DERP059,DERP059,Dep_Schaidt,20050101,,49.021,+049.1.15,8.1303,+08.7.49,,background,rural,rural background,remote,DE011A
DESH001,DESH001,Altendeich,19790731,,53.670553,+053.40.13,9.585874,+09.35.9,8,background,rural,rural,regional,DE002A
DESH006,DESH006,Schleswig,19831130,,54.5273,+054.31.38,9.549379,+09.32.57,42,background,suburban,suburban,unknown,DE002A
DESH008,DESH008,Bornhöved,19881108,,54.09323,+054.5.35,10.240596,+010.14.26,45,background,rural,rural,regional,DE002A
DESH013,DESH013,Fehmarn,19940519,,54.412987,+054.24.46,11.215994,+011.12.57,2,background,rural,rural,regional,DE002A
DESH014,DESH014,St.-Peter-Ording,19940531,,54.32781,+054.19.40,8.603474,+08.36.12,2,background,rural,rural,regional,DE002A
DESH015,DESH015,Itzehoe,19930819,,53.924712,+053.55.28,9.532635,+09.31.57,40,background,suburban,suburban,unknown,DE002A
DESH016,DESH016,Barsbüttel,19950614,,53.570583,+053.34.14,10.214871,+010.12.53,42,background,suburban,suburban,unknown,DE002A
DESH022,DESH022,Flensburg,20010201,,54.78143,+054.46.53,9.43809,+09.26.17,15,traffic,urban,urban,unknown,DE002A
DESH023,DESH023,Lübeck-St. Jürgen,20010517,,53.835492,+053.50.7,10.695936,+010.41.45,12,background,urban,urban,unknown,DE002A
DESH025,DESH025,Itzehoe Lindenstr.,20011211,,53.928028,+053.55.40,9.511769,+09.30.42,11,traffic,urban,urban,unknown,DE002A
DESH027,DESH027,Kiel-Bahnhofstr. Verk.,20050511,,54.304676,+054.18.16,10.135158,+010.8.6,8,traffic,urban,urban,unknown,DE002A
DESH028,DESH028,Ratzeburg,20050101,,53.698939,+053.41.56,10.775796,+010.46.32,10,traffic,urban,urban,unknown,DE002A
DESH030,DESH030,Norderstedt,20060630,,53.681993,+053.40.55,9.997256,+09.59.50,26,traffic,urban,urban,unknown,DE002A
DESH033,DESH033,Kiel-Max-Planck-Str.,20070425,,54.309674,+054.18.34,10.116563,+010.6.59,29,background,urban,urban,unknown,DE002A
DESH034,DESH034,Pinneberg Damm,20080130,,53.659575,+053.39.34,9.805229,+09.48.18,7,traffic,urban,urban,unknown,DE002A
DESH035,DESH035,Brunsbüttel-Cuxhavener Straße,20080508,,53.896117,+053.53.46,9.156908,+09.9.24,0,industrial,suburban,suburban,unknown,DE002A
DESH036,DESH036,Eutin,19850101,,54.135923,+054.8.9,10.628677,+010.37.43,32,background,rural,rural,unknown,DE002A
DESH037,DESH037,Hahnheide,19850101,,53.628823,+053.37.43,10.422273,+010.25.20,48,background,rural,rural,unknown,DE002A
DESH038,DESH038,Rantzau,19850101,,53.776103,+053.46.33,9.754174,+09.45.15,8,background,rural,rural,unknown,DE002A
DESH039,DESH039,Süderlügum,19850101,,54.862548,+054.51.45,8.958726,+08.57.31,13,background,rural,rural,unknown,DE002A
DESH040,DESH040,Satrup,19850101,,54.69664,+054.41.47,9.583563,+09.35.0,35,background,rural,rural,unknown,DE002A
DESH042,DESH042,Wallnau auf Fehmarn,19900601,,54.480492,+054.28.49,11.01506,+011.0.54,1,background,rural,rural,unknown,DE002A
DESH044,DESH044,Lindhof,20040121,,54.465285,+054.27.55,9.969578,+09.58.10,23,background,rural,rural,unknown,DE002A
DESH045,DESH045,Haale,20080901,,54.158126,+054.9.29,9.564111,+09.33.50,14,background,rural,rural,unknown,DE002A
DESH046,DESH046,Schuby,20041201,,54.538435,+054.32.18,9.432952,+09.25.58,14,background,rural,rural,unknown,DE002A
DESH047,DESH047,Reußenköge,20080101,,54.614542,+054.36.52,8.893155,+08.53.35,0,background,rural,rural,unknown,DE002A
DESH048,DESH048,Dep Brunsbüttel,19940316,,53.909777,+053.54.35,9.225234,+09.13.30,1,background,suburban,suburban,unknown,DE002A
DESH049,DESH049,Dep Bornhöved,19880101,,54.094256,+054.5.39,10.24125,+010.14.28,45,background,rural,rural,unknown,DE002A
DESH050,DESH050,Dep Lübeck St. Jürgen,20010529,,53.835772,+053.50.8,10.699416,+010.41.57,12,background,suburban,suburban,unknown,DE002A
DESH052,DESH052,Kiel-Theodor-Heuss-Ring,20120101,,54.304242,+054.18.15,10.122364,+010.7.20,18,traffic,urban,urban,unknown,DE002A
DESH053,DESH053,Lübeck Moislinger Allee,20131029,,53.862237,+053.51.44,10.67332,+010.40.23,6,traffic,urban,urban,unknown,DE002A
DESH054,DESH054,Dep_Bokhorst,20120401,,54.06363,+054.3.49,9.39985,+09.23.59,44,background,suburban,suburban,unknown,DE002A
DESL001,DESL001,Berus,19870301,,49.263905,+049.15.50,6.687126,+06.41.13,363,background,rural,rural,unknown,DE001A
DESL002,DESL002,Bexbach Schule,19870601,,49.362049,+049.21.43,7.263234,+07.15.47,273,background,urban,urban,unknown,DE001A
DESL003,DESL003,Dillingen City,19830701,,49.357861,+049.21.28,6.73354,+06.44.0,185,background,urban,urban,unknown,DE001A
DESL006,DESL006,Lauterbach,19870701,,49.18361,+049.11.0,6.744856,+06.44.41,221,background,suburban,suburban,unknown,DE001A
DESL010,DESL010,Saarbrücken-Burbach,19830701,,49.244247,+049.14.39,6.948776,+06.56.55,211,background,urban,urban,unknown,DE001A
DESL011,DESL011,Saarbrücken-Eschberg,19830701,,49.237227,+049.14.14,7.036322,+07.2.10,315,background,urban,urban,unknown,DE001A
DESL012,DESL012,Saarbrücken-City,19830701,,49.233464,+049.14.0,6.987601,+06.59.15,192,background,urban,urban,unknown,DE001A
DESL013,DESL013,Saarlouis-Fraulautern,19830701,,49.322646,+049.19.21,6.753639,+06.45.13,181,background,suburban,suburban,unknown,DE001A
DESL017,DESL017,Völklingen-City Stadionstr.,19890501,,49.254344,+049.15.15,6.867744,+06.52.3,189,background,urban,urban,unknown,DE001A
DESL018,DESL018,Sulzbach,20020701,,49.299373,+049.17.57,7.061679,+07.3.42,236,background,urban,urban,unknown,DE001A
DESL019,DESL019,Biringen,20030201,,49.416884,+049.25.0,6.552037,+06.33.7,339,background,rural,rural,regional,DE001A
DESL020,DESL020,Saarbrücken-Verkehr,20041001,,49.23074,+049.13.50,7.003174,+07.0.11,192,traffic,urban,urban,unknown,DE001A
DESL021,DESL021,Dep_Fischbach,19900101,,49.321289,+049.19.16,7.01778,+07.1.4,318,background,rural,rural,unknown,DE001A
DESL022,DESL022,Dep_Altheim,19900101,,49.179167,+049.10.45,7.260278,+07.15.37,375,background,rural,rural background,remote,DE001A
DESL023,DESL023,Dep_Bildstock,19900101,,49.3644,+049.21.51,7.158056,+07.9.29,294,industrial,rural,rural,unknown,DE001A
DESL024,DESL024,Dep_Eft-Hellendorf,19960101,,49.48278,+049.28.58,6.483056,+06.28.59,415,background,rural,rural,unknown,DE001A
DESL025,DESL025,Dep_Jägersburg,20030101,,49.373056,+049.22.23,7.345278,+07.20.43,262,background,rural,rural,unknown,DE001A
DESL026,DESL026,Dep_Mettlach,19900101,,49.516944,+049.31.0,6.576389,+06.34.35,413,background,rural,rural,unknown,DE001A
DESL027,DESL027,Dep_Ormesheim,19900101,,49.184167,+049.11.3,7.141389,+07.8.29,385,background,rural,rural,unknown,DE001A
DESL028,DESL028,Dep_Von der Heydt,19900101,,49.281667,+049.16.54,6.95333,+06.57.11,295,background,rural,rural,unknown,DE001A
DESL029,DESL029,Dep_Warndt,19900101,,49.22167,+049.13.18,6.741389,+06.44.29,255,industrial,rural,rural,unknown,DE001A
DESN001,DESN001,Annaberg-Buchholz,19940901,,50.570872,+050.34.15,12.997278,+012.59.50,545,background,urban,urban,unknown,DE016A
DESN004,DESN004,Bautzen,19940901,,51.175669,+051.10.32,14.443771,+014.26.37,203,background,urban,urban,unknown,DE016A
DESN006,DESN006,Borna,19940901,,51.125431,+051.7.31,12.494156,+012.29.38,145,traffic,urban,urban,unknown,DE016A
DESN011,DESN011,Chemnitz-Mitte,19901201,,50.832461,+050.49.56,12.917336,+012.55.2,300,background,urban,urban,unknown,DE016A
DESN017,DESN017,Freiberg,19940901,,50.9163,+050.54.58,13.346826,+013.20.48,393,background,urban,urban,unknown,DE016A
DESN019,DESN019,Glauchau,19940901,,50.826001,+050.49.33,12.542056,+012.32.31,233,background,urban,urban,unknown,DE016A
DESN020,DESN020,Görlitz,19861001,,51.155801,+051.9.20,14.973958,+014.58.26,210,traffic,urban,urban,unknown,DE016A
DESN024,DESN024,Klingenthal,19940901,,50.354783,+050.21.17,12.468739,+012.28.7,540,background,urban,urban,unknown,DE016A
DESN025,DESN025,Leipzig-Mitte,19901201,,51.344164,+051.20.38,12.377163,+012.22.37,110,traffic,urban,urban,unknown,DE016A
DESN045,DESN045,Zittau-Ost,19900701,,50.892377,+050.53.32,14.822846,+014.49.22,230,background,suburban,suburban,unknown,DE016A
DESN049,DESN049,Carlsfeld,19900701,,50.431322,+050.25.52,12.611125,+012.36.40,896,background,rural,rural background,remote,DE016A
DESN051,DESN051,Radebeul-Wahnsdorf,19671201,,51.119514,+051.7.10,13.675005,+013.40.30,246,background,rural,rural,near-city,DE016A
DESN052,DESN052,Zinnwald,19780501,,50.731478,+050.43.53,13.75145,+013.45.5,877,background,rural,rural,regional,DE016A
DESN053,DESN053,Fichtelberg,19701001,,50.428488,+050.25.42,12.953459,+012.57.12,1214,background,rural,rural background,remote,DE016A
DESN057,DESN057,Mittelndorf,19940901,,50.9385,+050.56.18,14.21016,+014.12.36,323,background,rural,rural,regional,DE016A
DESN059,DESN059,Leipzig-West,19940901,,51.317905,+051.19.4,12.297411,+012.17.50,115,background,urban,urban,unknown,DE016A
DESN061,DESN061,Dresden-Nord,19940901,,51.06493,+051.3.53,13.741397,+013.44.29,112,traffic,urban,urban,unknown,DE016A
DESN074,DESN074,Schwartenberg,19980206,,50.659097,+050.39.32,13.465078,+013.27.54,785,background,rural,rural,regional,DE016A
DESN075,DESN075,Plauen-Süd,19980806,,50.486138,+050.29.10,12.138054,+012.8.16,343,traffic,urban,urban,unknown,DE016A
DESN076,DESN076,Collmberg,19981001,,51.303772,+051.18.13,13.009406,+013.0.33,313,background,rural,rural background,remote,DE016A
DESN077,DESN077,Leipzig Lützner Str. 36,20010101,,51.335872,+051.20.9,12.334686,+012.20.4,113,traffic,urban,urban,unknown,DE016A
DESN079,DESN079,Niesky,20030505,,51.285356,+051.17.7,14.749731,+014.44.59,148,background,rural,rural,regional,DE016A
DESN080,DESN080,Schkeuditz,20030606,,51.396095,+051.23.45,12.234054,+012.14.2,122,background,rural,rural,near-city,DE016A
DESN081,DESN081,Plauen-DWD,19890401,,50.481751,+050.28.54,12.130376,+012.7.49,385,background,suburban,suburban,unknown,DE016A
DESN082,DESN082,Leipzig-Thekla,20040401,,51.375988,+051.22.33,12.425748,+012.25.32,110,background,suburban,suburban,unknown,DE016A
DESN083,DESN083,Chemnitz-Leipziger Str.,20050101,,50.84574,+050.50.44,12.903367,+012.54.12,327,traffic,urban,urban,unknown,DE016A
DESN084,DESN084,Dresden-Bergstr.,20050101,,51.026294,+051.1.34,13.731608,+013.43.53,150,traffic,urban,urban,unknown,DE016A
DESN086,DESN086,Marienberg,19881001,,50.651103,+050.39.3,13.147009,+013.8.49,639,background,suburban,suburban,unknown,DE016A
DESN087,DESN087,Chemnitz DWD,19890401,,50.785965,+050.47.9,12.872044,+012.52.19,418,background,rural,rural,near-city,DE016A
DESN088,DESN088,Görlitz DWD,19881001,,51.162133,+051.9.43,14.950808,+014.57.2,237,background,rural,rural,near-city,DE016A
DESN089,DESN089,Schkeuditz DWD,19891001,,51.434752,+051.26.5,12.239677,+012.14.22,122,background,rural,rural,near-city,DE016A
