{"type": "FeatureCollection", "features": [{"geometry": {"type": "Point", "coordinates": [6.897402, 51.0216619]}, "type": "Feature", "id": 1, "properties": {"city_subdistrict": "Chorweiler", "comment": null, "name": "Sparkasse K\u00f6lnBonn", "crowdsav_id": null, "aed4eu_id": null, "opening_hours": null, "source": "defik\u00f6ln", "city_district": "Chorweiler", "address": "Mail\u00e4nder Passage 51", "location_details": null, "last_edited_by": "marian", "last_edited": "2014-01-20", "osm_node_id": 1668102576}}, {"geometry": {"type": "Point", "coordinates": [6.9061345, 51.0117479]}, "type": "Feature", "id": 2, "properties": {"city_subdistrict": "Heimersdorf", "comment": null, "name": "Sparkasse K\u00f6lnBonn", "crowdsav_id": null, "aed4eu_id": null, "opening_hours": null, "source": "defik\u00f6ln", "city_district": "Chorweiler", "address": "Haselnu\u00dfhof 1", "location_details": null, "last_edited_by": "marian", "last_edited": "2014-01-20", "osm_node_id": 475012301}}, {"geometry": {"type": "Point", "coordinates": [6.9587787, 51.0252249]}, "type": "Feature", "id": 3, "properties": {"city_subdistrict": "Merkenich", "comment": null, "name": "Sparkasse K\u00f6lnBonn", "crowdsav_id": null, "aed4eu_id": null, "opening_hours": null, "source": "defik\u00f6ln", "city_district": "Chorweiler", "address": "Merkenicher Hauptstr. 123", "location_details": null, "last_edited_by": "marian", "last_edited": "2014-01-20", "osm_node_id": 247388977}}, {"geometry": {"type": "Point", "coordinates": [6.861026, 51.0630931]}, "type": "Feature", "id": 5, "properties": {"city_subdistrict": "Worringen", "comment": null, "name": "Sparkasse K\u00f6lnBonn", "crowdsav_id": null, "aed4eu_id": null, "opening_hours": null, "source": "defik\u00f6ln", "city_district": "Chorweiler", "address": "Hackhauser Weg 19", "location_details": null, "last_edited_by": "marian", "last_edited": "2014-01-20", "osm_node_id": 1341151971}}, {"geometry": {"type": "Point", "coordinates": [6.8902456, 50.9869509]}, "type": "Feature", "id": 6, "properties": {"city_subdistrict": "Butzweilerhof", "comment": null, "name": "NetCologne", "crowdsav_id": null, "aed4eu_id": null, "opening_hours": null, "source": "defik\u00f6ln", "city_district": "Ehrenfeld", "address": "Am Coloneum 9", "location_details": null, "last_edited_by": "marian", "last_edited": "2014-01-20", "osm_node_id": 2630064524}}, {"geometry": {"type": "Point", "coordinates": [6.9009467, 50.9575192]}, "type": "Feature", "id": 7, "properties": {"city_subdistrict": "Bickendorf", "comment": null, "name": "Sparkasse K\u00f6lnBonn", "crowdsav_id": null, "aed4eu_id": null, "opening_hours": null, "source": "defik\u00f6ln", "city_district": "Ehrenfeld", "address": "Venloer Str. 628", "location_details": null, "last_edited_by": "marian", "last_edited": "2014-01-20", "osm_node_id": 224445220}}, {"geometry": {"type": "Point", "coordinates": [6.8678883, 50.9801707]}, "type": "Feature", "id": 8, "properties": {"city_subdistrict": "Bocklem\u00fcnd", "comment": null, "name": "Sparkasse K\u00f6lnBonn", "crowdsav_id": null, "aed4eu_id": null, "opening_hours": null, "source": "defik\u00f6ln", "city_district": "Ehrenfeld", "address": "G\u00f6rlinger Zentrum 25", "location_details": null, "last_edited_by": "marian", "last_edited": "2014-01-23", "osm_node_id": 244296667}}, {"geometry": {"type": "Point", "coordinates": [6.9202781, 50.9481728]}, "type": "Feature", "id": 10, "properties": {"city_subdistrict": "Ehrenfeld", "comment": null, "name": "Sparkasse K\u00f6lnBonn", "crowdsav_id": null, "aed4eu_id": null, "opening_hours": null, "source": "defik\u00f6ln", "city_district": "Ehrenfeld", "address": "Venloer Str. 295", "location_details": null, "last_edited_by": "marian", "last_edited": "2014-01-26", "osm_node_id": 419010439}}, {"geometry": {"type": "Point", "coordinates": [6.9184582, 50.9587984]}, "type": "Feature", "id": 11, "properties": {"city_subdistrict": "Ehrenfeld", "comment": null, "name": "Sparkasse K\u00f6lnBonn", "crowdsav_id": null, "aed4eu_id": null, "opening_hours": null, "source": "defik\u00f6ln", "city_district": "Ehrenfeld", "address": "Iltisstr. 20", "location_details": null, "last_edited_by": "marian", "last_edited": "2014-01-26", "osm_node_id": 2638236794}}, {"geometry": {"type": "Point", "coordinates": [6.8997524, 50.9678877]}, "type": "Feature", "id": 12, "properties": {"city_subdistrict": "Ossendorf", "comment": null, "name": "Sparkasse K\u00f6lnBonn", "crowdsav_id": null, "aed4eu_id": null, "opening_hours": null, "source": "defik\u00f6ln", "city_district": "Ehrenfeld", "address": "Frohnhofstr. 130", "location_details": null, "last_edited_by": "marian", "last_edited": "2014-01-26", "osm_node_id": 230226555}}, {"geometry": {"type": "Point", "coordinates": [6.9198855, 50.953704]}, "type": "Feature", "id": 13, "properties": {"city_subdistrict": "Subbelrath", "comment": null, "name": "Sparkasse K\u00f6lnBonn", "crowdsav_id": null, "aed4eu_id": null, "opening_hours": null, "source": "defik\u00f6ln", "city_district": "Ehrenfeld", "address": "Subbelrather Str. 243", "location_details": null, "last_edited_by": "marian", "last_edited": "2014-01-26", "osm_node_id": 196170706}}, {"geometry": {"type": "Point", "coordinates": [6.8803851, 50.9558199]}, "type": "Feature", "id": 15, "properties": {"city_subdistrict": "Vogelsang", "comment": null, "name": "Sparkasse K\u00f6lnBonn", "crowdsav_id": 7222, "aed4eu_id": null, "opening_hours": null, "source": "defik\u00f6ln", "city_district": "Ehrenfeld", "address": "Vogelsanger Str. 452 a", "location_details": null, "last_edited_by": "marian", "last_edited": "2014-02-08", "osm_node_id": 224392074}}, {"geometry": {"type": "Point", "coordinates": [6.917627, 50.9540844]}, "type": "Feature", "id": 16, "properties": {"city_subdistrict": "Ehrenfeld", "comment": null, "name": "St. Franziskus-Hospital", "crowdsav_id": null, "aed4eu_id": null, "opening_hours": null, "source": "defik\u00f6ln", "city_district": "Ehrenfeld", "address": "Sch\u00f6nsteinstr. 63", "location_details": null, "last_edited_by": "marian", "last_edited": "2014-02-08", "osm_node_id": 2660981735}}, {"geometry": {"type": "Point", "coordinates": [6.9803208, 50.9327494]}, "type": "Feature", "id": 17, "properties": {"city_subdistrict": "Deutz", "comment": null, "name": "Eduardus-Krankenhaus", "crowdsav_id": 7178, "aed4eu_id": null, "opening_hours": null, "source": "defik\u00f6ln", "city_district": "Innenstadt", "address": "Custodisstr. 3-17", "location_details": null, "last_edited_by": "marian", "last_edited": "2014-02-08", "osm_node_id": 2660988163}}, {"geometry": {"type": "Point", "coordinates": [6.9581998, 50.9416647]}, "type": "Feature", "id": 18, "properties": {"city_subdistrict": "Altstadt-Nord", "comment": null, "name": "K\u00f6lner Dom", "crowdsav_id": 7110, "aed4eu_id": null, "opening_hours": "6.00-19.30 Uhr", "source": "defik\u00f6ln", "city_district": "Innenstadt", "address": null, "location_details": "Nordeingang (Richtung Bahnhof)", "last_edited_by": "marian", "last_edited": "2014-02-08", "osm_node_id": 2629536675}}, {"geometry": {"type": "Point", "coordinates": [6.9581128, 50.9431837]}, "type": "Feature", "id": 20, "properties": {"city_subdistrict": "Altstadt-Nord", "comment": null, "name": "Sparkasse K\u00f6lnBonn", "crowdsav_id": null, "aed4eu_id": null, "opening_hours": null, "source": "defik\u00f6ln", "city_district": "Innenstadt", "address": null, "location_details": "im Hauptbahnhof", "last_edited_by": "marian", "last_edited": "2014-01-24", "osm_node_id": 2634947257}}, {"geometry": {"type": "Point", "coordinates": [6.9562411, 50.9505568]}, "type": "Feature", "id": 21, "properties": {"city_subdistrict": null, "comment": null, "name": "Sparkasse K\u00f6lnBonn", "crowdsav_id": null, "aed4eu_id": null, "opening_hours": null, "source": "defik\u00f6ln", "city_district": "Innenstadt", "address": "Ebertplatz 1", "location_details": null, "last_edited_by": "marian", "last_edited": "2014-02-08", "osm_node_id": 2660994495}}, {"geometry": {"type": "Point", "coordinates": [6.9415515, 50.9287722]}, "type": "Feature", "id": 22, "properties": {"city_subdistrict": null, "comment": null, "name": "Sparkasse K\u00f6lnBonn", "crowdsav_id": 7116, "aed4eu_id": null, "opening_hours": null, "source": "defik\u00f6ln", "city_district": "Innenstadt", "address": "Barbarossaplatz 2", "location_details": null, "last_edited_by": "marian", "last_edited": "2014-02-08", "osm_node_id": 283622259}}, {"geometry": {"type": "Point", "coordinates": [6.9572986, 50.9363873]}, "type": "Feature", "id": 24, "properties": {"city_subdistrict": null, "comment": null, "name": "Sparkasse K\u00f6lnBonn", "crowdsav_id": 7113, "aed4eu_id": null, "opening_hours": null, "source": "defik\u00f6ln", "city_district": "Innenstadt", "address": "G\u00fcrzenichstr. 19", "location_details": null, "last_edited_by": "marian", "last_edited": "2014-02-08", "osm_node_id": 259198814}}, {"geometry": {"type": "Point", "coordinates": [6.9542728, 50.9429199]}, "type": "Feature", "id": 25, "properties": {"city_subdistrict": null, "comment": null, "name": "Sparkasse K\u00f6lnBonn", "crowdsav_id": 7112, "aed4eu_id": null, "opening_hours": null, "source": "defik\u00f6ln", "city_district": "Innenstadt", "address": "An den Dominikanern 6", "location_details": null, "last_edited_by": "marian", "last_edited": "2014-01-20", "osm_node_id": 2103595703}}, {"geometry": {"type": "Point", "coordinates": [6.9417141, 50.9433635]}, "type": "Feature", "id": 26, "properties": {"city_subdistrict": null, "comment": null, "name": "Sparkasse K\u00f6lnBonn", "crowdsav_id": null, "aed4eu_id": null, "opening_hours": null, "source": "defik\u00f6ln", "city_district": "Innenstadt", "address": "Kaiser-Wilhelm-Ring 20", "location_details": null, "last_edited_by": "marian", "last_edited": "2014-02-08", "osm_node_id": 286416915}}, {"geometry": {"type": "Point", "coordinates": [6.9407866, 50.9354693]}, "type": "Feature", "id": 27, "properties": {"city_subdistrict": null, "comment": null, "name": "Sparkasse K\u00f6lnBonn", "crowdsav_id": null, "aed4eu_id": null, "opening_hours": null, "source": "defik\u00f6ln", "city_district": "Innenstadt", "address": "Hahnenstr. 57", "location_details": null, "last_edited_by": "marian", "last_edited": "2014-02-05", "osm_node_id": 2655934640}}, {"geometry": {"type": "Point", "coordinates": [6.949425, 50.9358387]}, "type": "Feature", "id": 28, "properties": {"city_subdistrict": "Altstadt-Nord", "comment": null, "name": "Sparkasse K\u00f6lnBonn", "crowdsav_id": 7114, "aed4eu_id": null, "opening_hours": null, "source": "defik\u00f6ln", "city_district": "Innenstadt", "address": "Neumarkt 1d", "location_details": null, "last_edited_by": "marian", "last_edited": "2014-02-06", "osm_node_id": 255239657}}, {"geometry": {"type": "Point", "coordinates": [6.9782272, 50.9368437]}, "type": "Feature", "id": 29, "properties": {"city_subdistrict": "Deutz", "comment": null, "name": "Sparkasse K\u00f6lnBonn", "crowdsav_id": 7179, "aed4eu_id": null, "opening_hours": null, "source": "defik\u00f6ln", "city_district": "Innenstadt", "address": "Gotenring 1", "location_details": null, "last_edited_by": "marian", "last_edited": "2014-02-08", "osm_node_id": 2661022368}}, {"geometry": {"type": "Point", "coordinates": [6.9575933, 50.9275528]}, "type": "Feature", "id": 30, "properties": {"city_subdistrict": "Severin", "comment": null, "name": "Sparkasse K\u00f6lnBonn", "crowdsav_id": 7117, "aed4eu_id": null, "opening_hours": null, "source": "defik\u00f6ln", "city_district": "Innenstadt", "address": "Severinstr.149/Im Dau", "location_details": null, "last_edited_by": "marian", "last_edited": "2014-02-08", "osm_node_id": 2661030909}}, {"geometry": {"type": "Point", "coordinates": [7.074945, 50.9454596]}, "type": "Feature", "id": 33, "properties": {"city_subdistrict": "Br\u00fcck", "comment": null, "name": "Sparkasse K\u00f6lnBonn", "crowdsav_id": 7163, "aed4eu_id": null, "opening_hours": null, "source": "defik\u00f6ln", "city_district": "Kalk", "address": "Olpener Str. 795-799", "location_details": null, "last_edited_by": "marian", "last_edited": "2014-02-08", "osm_node_id": 2661041117}}, {"geometry": {"type": "Point", "coordinates": [7.0242056, 50.9400832]}, "type": "Feature", "id": 34, "properties": {"city_subdistrict": "H\u00f6henberg", "comment": null, "name": "Sparkasse K\u00f6lnBonn", "crowdsav_id": null, "aed4eu_id": null, "opening_hours": null, "source": "defik\u00f6ln", "city_district": "Kalk", "address": "Olpener Str. 156 - 158", "location_details": null, "last_edited_by": "marian", "last_edited": "2014-02-08", "osm_node_id": 637570861}}, {"geometry": {"type": "Point", "coordinates": [6.9956233, 50.9303164]}, "type": "Feature", "id": 35, "properties": {"city_subdistrict": "Humbold", "comment": null, "name": "Sparkasse K\u00f6lnBonn", "crowdsav_id": null, "aed4eu_id": null, "opening_hours": null, "source": "defik\u00f6ln", "city_district": "Kalk", "address": "Gremberger Str. 32", "location_details": null, "last_edited_by": "marian", "last_edited": "2014-02-08", "osm_node_id": 1427508090}}, {"geometry": {"type": "Point", "coordinates": [7.0014664, 50.9378688]}, "type": "Feature", "id": 36, "properties": {"city_subdistrict": "Kalk", "comment": null, "name": "Sparkasse K\u00f6lnBonn", "crowdsav_id": null, "aed4eu_id": null, "opening_hours": null, "source": "defik\u00f6ln", "city_district": "Kalk", "address": "Kalker Hauptstr. 129-133", "location_details": null, "last_edited_by": "marian", "last_edited": "2014-02-08", "osm_node_id": 2661133855}}, {"geometry": {"type": "Point", "coordinates": [7.0455762, 50.9429305]}, "type": "Feature", "id": 37, "properties": {"city_subdistrict": "Merheim", "comment": null, "name": "Sparkasse K\u00f6lnBonn", "crowdsav_id": null, "aed4eu_id": null, "opening_hours": null, "source": "defik\u00f6ln", "city_district": "Kalk", "address": "Olpener Str. 397", "location_details": null, "last_edited_by": "marian", "last_edited": "2014-02-08", "osm_node_id": 2127984949}}, {"geometry": {"type": "Point", "coordinates": [6.9234185, 50.9114974]}, "type": "Feature", "id": 49, "properties": {"city_subdistrict": "Klettenberg", "comment": null, "name": "Sparkasse K\u00f6lnBonn", "crowdsav_id": null, "aed4eu_id": null, "opening_hours": null, "source": "defik\u00f6ln", "city_district": "Lindenthal", "address": "Luxemburger Str. 331", "location_details": null, "last_edited_by": null, "last_edited": null, "osm_node_id": 265728727}}, {"geometry": {"type": "Point", "coordinates": [6.9328268, 50.9276933]}, "type": "Feature", "id": 60, "properties": {"city_subdistrict": "S\u00fclz", "comment": null, "name": "Unimensa", "crowdsav_id": null, "aed4eu_id": null, "opening_hours": null, "source": "OSM", "city_district": "Lindenthal", "address": "Z\u00fclpicher Str. 70", "location_details": "Foyer im MG neben den Toiletten", "last_edited_by": "marian", "last_edited": "2014-01-20", "osm_node_id": 1609157079}}, {"geometry": {"type": "Point", "coordinates": [6.9392709, 50.9686268]}, "type": "Feature", "id": 75, "properties": {"city_subdistrict": "Bilderst\u00f6ckchen", "comment": null, "name": "Sparkasse K\u00f6lnBonn", "crowdsav_id": null, "aed4eu_id": null, "opening_hours": null, "source": "defik\u00f6ln", "city_district": "Nippes", "address": "Longericher Str. 1", "location_details": null, "last_edited_by": "marian", "last_edited": "2014-01-20", "osm_node_id": 246829498}}, {"geometry": {"type": "Point", "coordinates": [7.1223733, 50.878861]}, "type": "Feature", "id": 107, "properties": {"city_subdistrict": "Grengel", "comment": null, "name": "Flughafen K\u00f6ln/Bonn Terminal 1", "crowdsav_id": null, "aed4eu_id": null, "opening_hours": null, "source": null, "city_district": "Porz", "address": "Heinrich-Steinmann-Stra\u00dfe", "location_details": "Am Info-Schalter", "last_edited_by": "marian", "last_edited": "2014-01-20", "osm_node_id": 2629647242}}, {"geometry": {"type": "Point", "coordinates": [7.1195509, 50.8804496]}, "type": "Feature", "id": 108, "properties": {"city_subdistrict": "Grengel", "comment": null, "name": "Flughafen K\u00f6ln/Bonn Terminal 2", "crowdsav_id": null, "aed4eu_id": null, "opening_hours": null, "source": null, "city_district": "Porz", "address": "Heinrich-Steinmann-Stra\u00dfe", "location_details": "Am Info-Schalter", "last_edited_by": "marian", "last_edited": "2014-01-20", "osm_node_id": 2629647241}}, {"geometry": {"type": "Point", "coordinates": [6.9588287, 50.9385724]}, "type": "Feature", "id": 133, "properties": {"city_subdistrict": "Altstadt-S\u00fcd", "comment": null, "name": "Rathaus Spanischer Bau", "crowdsav_id": null, "aed4eu_id": null, "opening_hours": "Mo - Fr 08:00 - 16:00 Uhr und zu Veranstaltungen", "source": "Stadt K\u00f6ln", "city_district": "Innenstadt", "address": "Rathaus Spanischer Bau, 50667 K\u00f6ln", "location_details": "Bereich Infotheke", "last_edited_by": "marian", "last_edited": "2014-02-08", "osm_node_id": 2660970270}}, {"geometry": {"type": "Point", "coordinates": [6.9517167, 50.9399669]}, "type": "Feature", "id": 136, "properties": {"city_subdistrict": "Altstadt-Nord", "comment": null, "name": "WDR Vierscheibenhaus", "crowdsav_id": null, "aed4eu_id": null, "opening_hours": null, "source": "eigene Beobachtung", "city_district": "Innenstadt", "address": "Apellhofplatz/Kupfergasse, 50667 K\u00f6ln", "location_details": "Haupteingang Empfang", "last_edited_by": "marian", "last_edited": "2014-02-04", "osm_node_id": 2656318761}}]}